"Worldbirds Location","Worldbirds Location ID","Worldbirds Latitude","Worldbirds Longitude","Worldbirds Region/State","eBird Location","eBird Region Code","eBird Country Code","eBird Latitude","eBird Longitude"
"A3/A4 - Cruzamento",27298,41.197,-8.5876666667,,,,,,
"A5 Setúbal-Évora-Elvas",27600,38.6253333333,-7.943,,,,,,
"aaa",2055,39.24,-9.54,,,,,,
"Abicada / Ria de Alvor",2034,37.1515,-8.5966666667,,,,,,
"Aguçadoura",27587,41.4166666667,-8.787,,,,,,
"Alares, Tejo Internacional, Castelo Branco",27373,"39.657166666667","-7.1606666666667",,"PN Tejo Internacional--Posto dos Alares                               ","05","PT","39.6593572","-7.1714736"
"Albufeira de Montargil",137,39.074,-8.1616666667,,,,,,
"Albufeira de Nossa Senhora da Tourega, Valverde, Évora",27371,38.5038333333,-8.0326666667,,,,,,
"Albufeira de Santa Águeda (ou Marateca)",1783,39.9696666667,-7.4846666667,,,,,,
"Albufeira do Azibo",106,41.5708333333,-6.9096666667,,,,,,
"Albufeira do Maranhão, Avis",27266,39.7071666667,-7.8881666667,,,,,,
"Albufeira do Maranhão, Benavila, Avis",27406,39.111079,-7.877728,,,,,,
"Albufeira dos Minutos, Montemor-o-Novo",27366,38.6588333333,-8.0968333333,,,,,,
"Alcochete - Hortas",27583,38.76,-8.9368333333,,,,,,
"Alcochete: Alcochete",337,38.7551666667,-8.9636666667,,,,,,
"Alcoutim (vila)",1888,37.4711666667,-7.4711666667,,,,,,
"Aldeia Viçosa, Guarda (Serra da Estrela)",27493,40.568002,7.312517,,,,,,
"Aldeias, Gouveia",27427,40.470836,-7.599184,,,,,,
"Alijó (concelho todo)",27537,41.2695,-7.4775,,,,,,
"Aljezur",27470,37.321028,8.805542,,,,,,
"Aljezur - Quinta do Lago Silencioso",27468,37.303774,8.832536,,,,,,
"Aljustrel",1690,37.8728333333,-8.158,,,,,,
"Almarjao",27488,37.1811666667,-7.9526666667,,,,,,
"Almendra, Vila Nova de Foz Côa",27319,41.034898,-7.002336,,,,,,
"Alpalhão - Nisa",297,39.4141666667,-7.6426666667,,,,,,
"Alto da Pedrice, Serra da Estrela",27568,40.3126666667,-7.5733333333,,,,,,
"Ameada, Mourão",27323,38.3218333333,-7.2211666667,,,,,,
"Ameirinhos-Estrada da Ponte, Murtosa",175,40.7665,-8.6715,,,,,,
"Amoreira/Foz da ribeira de Aljezur",27453,"37.335333333333","-8.8535",,"PN Costa Vicentina e Sudoeste Alentejano--Ribeira de Aljezur","08","PT","37.3368732","-8.8347942"
"Angueira - QG11Q",27538,41.603,-6.4166666667,,,,,,
"Antas - Arruda dos Vinhos",27478,38.9903333333,-9.0495,,,,,,
"ao largo de Salema",27510,37.043,-8.8191666667,,,,,,
"Arcos de Valdevez - Vila (NG43_W)",1692,41.5041,-8.2435,,,,,,
"Arcozelo, Gouveia",27450,40.535068,-7.623502,,,,,,
"Areão",27344,40.5501666667,-8.7641666667,,,,,,
"Armacao de Pera",27482,"37.103","-8.3683333333333",,"Armação de Pêra","08","PT","37.1001325","-8.3580208"
"Arrábida - Aldeia de Irmãos / Casais da Serra",27270,"38.488","-9.0293333333333","Portugal (mainland)","PN Arrábida--Alambre","15","PT","38.493576","-9.0281413"
"Arronches - Barragem do Brilongo - Área nº 1",1723,39.107,-7.1461666667,,,,,,
"Arrozais da Giganta",25479,"38.916","-8.9291666666667","Portugal (mainland)","Estuário do Tejo--Arrozais da Giganta","11","PT","38.9159291","-8.9326572"
"Atalaia do Campo - Alpedrinha",27565,40.0515,-7.4278333333,,,,,,
"Aveiro - Atrás da Universidade até salina",27061,40.6315,-8.6628333333,,,,,,
"Aveiro - Salinas - Área nº 1",1647,40.6431666667,-8.6638333333,,,,,,
"Aveiro-Salinas-Área 1",27380,40.6413333333,-8.6663333333,,,,,,
"Aveiro-Salinas-Área 2",27381,40.649,-8.6553333333,,,,,,
"Aveiro-Salinas-U.A",27378,40.63,-8.6663333333,,,,,,
"Aveleda",27490,41.8868333333,-6.6998333333,,,,,,
"Baía de Cascais, Cascais",308,38.6966666667,-9.4198333333,,,,,,
"Baixa do Rio Seia, Seia",27318,40.430446,-7.709372,,,,,,
"Barragem de Fagauste, Rio Douro, Regua",2131,41.144,-7.7388333333,,,,,,
"Barragem de Fagilde, Mangualde",27196,40.385,7.4542,,,,,,
"Barragem de Poio, Nisa",1610,39.469761,-7.54735,,,,,,
"Barragem de Vilarinho das Furnas",27345,41.7,8.2,,,,,,
"Barragem do Caldeirão, Guarda",27448,40.531347,-7.330088,,,,,,
"Barragem do Divor - Igrejinha",1624,38.6991666667,-7.9291666667,,,,,,
"Barragem do Poio",27263,39.488,-7.5701666667,,,,,,
"Barrinha de Esmoriz/Lagoa de Paramos IBA",11,40.96666667,-8.633333333,,,,,,
"Barrinha de Mira",2145,40.4541666667,-8.7973333333,,,,,,
"Barroca d'Alva",138,38.73760833,-8.900397222,,,,,,
"Batateiro, Gave, Melgaço",27337,41.993264,-8.271189,,,,,,
"BB83_W",2170,32.8185,-17.2579,,,,,,
"BB92_D",2171,32.7648,-17.2352,,,,,,
"BB92_H",2173,32.7471,-17.2134,,,,,,
"BB92_N",2178,32.7655,-17.1925,,,,,,
"BB92_S",2182,32.7479,-17.1707,,,,,,
"BB92_U",2184,32.7839,-17.1716,,,,,,
"BB92_Y",2188,32.7663,-17.1498,,,,,,
"BB93_A",2190,32.8008,-17.2361,,,,,,
"BB93_C",2192,32.8369,-17.237,,,,,,
"BB93_N",2200,32.8557,-17.1947,,,,,,
"BB93_W",2207,32.8204,-17.1511,,,,,,
"BB93_Y",2209,32.8564,-17.152,,,,,,
"Beja",1689,38.0141666667,-7.8631666667,,,,,,
"Belém, Lisboa",314,38.6938333333,-9.207,,,,,,
"Bico do Muranzel, Ria de Aveiro, Murtosa",25481,40.7311666667,-8.6546666667,,,,,,
"Boca do Rio, Budens, Vila do Bispo",2056,"37.067666666667","-8.8091666666667",,"PN Sudoeste Alentejano e Costa Vicentina--Boca do Rio","08","PT","37.0757486","-8.8012798"
"Braga- Bom Jesus",27394,39.7071666667,-7.8881666667,,,,,,
"CA59_Y",2211,32.5014,-16.5009,,,,,,
"CA59_Z",2212,32.5195,-16.5012,,,,,,
"CA68_D",2213,32.4115,-16.4782,,,,,,
"Cabeço Alto, Rosmaninhal",27374,39.7326666667,-7.0415,,,,,,
"Cabo Carvoeiro",27485,39.3598333333,-9.4086666667,,,,,,
"Cabo da Roca",1600,"38.780057","-9.498861","Portugal (mainland)","PN Sintra-Cascais--Cabo da Roca","11","PT","38.7804505","-9.4989467"
"Cabo de São Vicente - Sagres",27483,"37.023666666667","-8.9956666666667","Portugal (mainland)","PN Sudoeste Alentejano e Costa Vicentina--Cabo de São Vicente","08","PT","37.0234432","-8.9956972"
"Cabo Espichel",143,"38.4135","-9.2201666666667","Portugal (mainland)","PN Arrábida--IBA Cabo Espichel","15","PT","38.414005","-9.217701"
"Cabo Espichel IBA",15,"38.41666667","-9.183333333","Portugal (mainland)","PN Arrábida--IBA Cabo Espichel","15","PT","38.414005","-9.217701"
"Cabo Raso",142,"38.708666666667","-9.4853333333333","Portugal (mainland)","PN Sintra-Cascais--Cabo Raso","11","PT","38.7094577","-9.485836"
"Cabo Sardão",2110,"37.6065","-8.8171666666667","Portugal (mainland)","PN Costa Vicentina e Sudoeste Alentejano--Cabo Sardão","02","PT","37.5975486","-8.8165958"
"Caféde, Castelo Branco",1794,39.926983,-7.510872,,,,,,
"Cais do Areão",27306,40.5115,-8.7771666667,,,,,,
"Caldeirão do Corvo",217,39.7103333333,-31.1083333333,,,,,,
"Calhariz",27433,"38.4633","-9.056","Portugal (mainland)","PN Arrábida--Calhariz","15","PT","38.4633","-9.056"
"Cambarinho (parque botânico)",27464,40.6803333333,-8.2066666667,,,,,,
"Caminho agricola com montado",27339,39.7071666667,-7.8881666667,,,,,,
"Caminho agricola proximo da estrada nacional 3",27338,39.7071666667,-7.8881666667,,,,,,
"Campo de Golfe de Rilhadas - Fafe",27223,41.4265,-8.2133333333,,,,,,
"Campo de Golfe Oporto GC - Espinho",27299,40.988,-8.6423333333,,,,,,
"Campo Grande, Lisboa",1828,38.757796,-9.15461,,,,,,
"Campo Maior - Barragem do Caia - Área nº 1",1718,"39.0035","-7.1593333333333",,"IBA Albufeira do Caia","12","PT","39.0120223","-7.1515536"
"Campo Pequeno - Lisboa",1660,38.7423333333,-9.1451666667,,,,,,
"Caneiros, Oleiros",27472,40.023737,-7.874708,,,,,,
"Canhão Submarino de Portimão",27536,39.7071666667,-7.8881666667,,,,,,
"Canical",27558,32.7366666667,-16.7378333333,,,,,,
"Canidelo, Vila Nova de Gaia",2109,41.1368333333,-8.6606666667,,,,,,
"Cantelães - Vieira do Minho",27279,41.6451666667,-8.1308333333,,,,,,
"Caramulo - circuito",27459,40.5695,-8.1776666667,,,,,,
"Carcavelos - minha casa",186,38.6846666667,-9.3291666667,,,,,,
"Carrapateiro - Reserva Natural",27350,38.82864,-8.881087,,,,,,
"Carrasqueira, IBA Estuario do Sado",185,38.4136666667,-8.7543333333,,,,,,
"Carvalhais",27518,40.4815,-8.6773333333,,,,,,
"Casa",27379,40.4898333333,-8.687,,,,,,
"Casa Branca",27346,38.4641666667,-8.1595,,,,,,
"Casais da Serra, Serra da Arrábida",27467,38.480604,-9.031277,,,,,,
"Casais do Douro",27276,41.1743333333,-7.5538333333,,,,,,
"Casal da Texuga",27340,39.7071666667,-7.8881666667,,,,,,
"Cascais, Oitavos",27570,38.6997,-9.4677,,,,,,
"Cascais, Paqrque de Palmela",27312,38.704238,-9.413385,,,,,,
"Cascais, Parque da Ribeira dos Mochos",27395,38.698844,-9.430119,,,,,,
"Castelo Branco - arredores da cidade",1673,39.7071666667,-7.8881666667,,,,,,
"Castelo Branco - zona industrial",1674,39.7071666667,-7.8881666667,,,,,,
"Castelo de Marvão",1587,39.3926666667,-7.3738333333,,,,,,
"Castelo de Noudar, Barrancos",1889,"38.178","-7.0631666666667","Portugal (mainland)","Barrancos--Castelo de Noudar","02","PT","38.1777372","-7.0622295"
"Castelo de Vide",241,39.413,-7.4546666667,,,,,,
"Castelo de Vide - Barragem de Póvoa e Meadas - Área nº 1",1732,39.4771666667,-7.5525,,,,,,
"Castelo de Vide - N. S. Graça de Póvoa e Medas",27301,39.511,-7.5195,,,,,,
"Castelo De Vide - N.S. Da Graça da Povoa e Meadas - Área nº 1",1730,39.5118333333,-7.5018333333,,,,,,
"Castelo Rodrigo (perímetro urbano)",2153,40.8765,-6.9641666667,,,,,,
"Castro Marim - Salinas - Área nº 1",1712,37.2288333333,-7.4271666667,,,,,,
"Castro Marim - Salinas - Área nº 2",1711,37.20305,-7.44833,,,,,,
"Castro Marim IBA",19,37.2,-7.4333,,,,,,
"Castro Verde",1754,37.6921666667,-8.0816666667,,,,,,
"Castro Verde",139,37.69520278,-8.080986111,,,,,,
"Castro Verde - Entradas - Área nº 1",1716,37.794,-8.0555,,,,,,
"Castro Verde IBA",20,37.75,-8,,,,,,
"Cativelos, Gouveia",27422,40.546448,-7.702836,,,,,,
"CB01_E",2215,32.6945,-17.1268,,,,,,
"CB01_J",2216,32.6949,-17.1055,,,,,,
"CB01_N",2217,32.6772,-17.0837,,,,,,
"CB01_T",2219,32.6776,-17.0624,,,,,,
"CB01_X",2221,32.6599,-17.0407,,,,,,
"CB01_Z",2223,32.6959,-17.0415,,,,,,
"CB02_A",2224,32.7126,-17.1272,,,,,,
"CB02_H",2230,32.749,-17.1067,,,,,,
"CB02_R",2239,32.7317,-17.0636,,,,,,
"CB02_T",2241,32.7677,-17.0645,,,,,,
"CB02_V",2243,32.714,-17.0419,,,,,,
"CB02_X",2245,32.75,-17.0427,,,,,,
"CB03_A",2162,32.8026666667,-17.1291666667,,,,,,
"CB03_B",2161,32.8207,-17.1298,,,,,,
"CB03_F",2164,32.8031,-17.108,,,,,,
"CB03_G",2163,32.8211,-17.1084,,,,,,
"CB03_Q",2166,32.8038,-17.0653,,,,,,
"CB03_V",2167,32.8041,-17.044,,,,,,
"CB12_C",2267,32.7504,-17.0214,,,,,,
"CB12_E",2269,32.7864,-17.0222,,,,,,
"CB12_P",2279,32.7871,-16.9795,,,,,,
"CB12_W",2286,32.7337,-16.9356,,,,,,
"CB13_A",2168,32.8045,-17.0226,,,,,,
"CB13_F",2290,32.8048,-17.0013,,,,,,
"CB13_L",2293,32.8232,-16.9803,,,,,,
"CB13_Q",2294,32.8055,-16.9586,,,,,,
"CB13_R",2295,32.8235,-16.959,,,,,,
"CB13_W",2297,32.8238,-16.9376,,,,,,
"CB21_B",2298,32.6439,-16.9124,,,,,,
"CB21_H",2303,32.6622,-16.8915,,,,,,
"CB21_J",2305,32.6983,-16.8922,,,,,,
"CB21_L",2306,32.6445,-16.8698,,,,,,
"CB21_W",2314,32.6451,-16.8271,,,,,,
"CB21_Y",2316,32.6812,-16.8279,,,,,,
"CB22_U",2337,32.7891,-16.8514,,,,,,
"CB23_A",2342,32.8061,-16.9159,,,,,,
"CB23_B",2343,32.8242,-16.9162,,,,,,
"CB23_F",2344,32.8065,-16.8945,,,,,,
"CB23_G",2345,32.8245,-16.8949,,,,,,
"CB23_K",2346,32.8068,-16.8732,,,,,,
"CB31_C",2347,32.6635,-16.8062,,,,,,
"CB31_D",2348,32.6815,-16.8065,,,,,,
"CB31_E",2349,32.6995,-16.8069,,,,,,
"CB31_J",2350,32.6998,-16.7856,,,,,,
"CB31_P",2351,32.7001,-16.7643,,,,,,
"CB32_A",2352,32.7176,-16.8073,,,,,,
"CB32_G",2356,32.7359,-16.7863,,,,,,
"CB32_K",2358,32.7182,-16.7646,,,,,,
"CB32_R",2361,32.7365,-16.7436,,,,,,
"CB42_B",2365,32.7371,-16.701,,,,,,
"CB42_G",2367,32.7374,-16.6796,,,,,,
"CB50_N",2371,32.5911,-16.545,,,,,,
"CB50_Q",2372,32.5372,-16.5228,,,,,,
"CB50_R",2373,32.5553,-16.5231,,,,,,
"CB75_C",2378,33.0259,-16.3813,,,,,,
"CB75_I",2381,33.0442,-16.3602,,,,,,
"CB75_P",2384,33.0625,-16.339,,,,,,
"CB75_Z",2386,33.0629,-16.2962,,,,,,
"CB76_F",2387,33.0803,-16.3607,,,,,,
"CB76_R",2390,33.0988,-16.3181,,,,,,
"CERVAS / Parque Ecológico de Gouveia",27188,40.502761,-7.545753,,,,,,
"Chamusca: miradouro castelo Almourol",2103,39.4588333333,-8.3845,,,,,,
"Cheganças",27343,39.7071666667,-7.8881666667,,,,,,
"Cidade Desportiva Monte Abraão",1533,38.7533333333,-9.2708333333,,,,,,
"Cidadelhe",27273,40.9155,-7.116,,,,,,
"Coimbra - Almalaguês",27499,40.1345,-8.382,,,,,,
"Coimbra - Portela do Casal Novo",27500,40.1368333333,-8.378,,,,,,
"Coimbra-Jardim Botânico da Universidade de Coimbra",27272,40.2145,-8.4402,,,,,,
"Coimbra-Parque Verde do Mondego",27287,5,7,,,,,,
"Colaride, Sintra",27569,39.7071666667,-7.8881666667,,,,,,
"Constantim - QG21Q",27539,41.6205,-6.2725,,,,,,
"Costa de Caparica",276,38.6373333333,-9.2293333333,,,,,,
"Costa do Estoril",141,38.70162222,-9.393713889,,,,,,
"Crato",2140,39.2911666667,-7.6458333333,,,,,,
"Curral do Negro, Gouveia",27169,40.490294,-7.5722477,,,,,,
"Custió, Parque Maia - Linha Metro Ismai",27590,1,1,,,,,,
"Douro Internacional",27533,41.3231666667,-6.4263333333,,,,,,
"DU02_B",2392,30.0341,-16.0268,,,,,,
"DU13_S",2393,30.1436,-15.8618,,,,,,
"Duas Igrejas, Miranda do Douro",27403,41.485072,-6.354686,,,,,,
"Dunas de S Jacinto",110,40.67594444,-8.730883333,,,,,,
"Eixo N-S, Lisboa",1780,38.710563,-9.178946,,,,,,
"Entradas",26351,37.7956666667,-7.9883333333,,,,,,
"Entradas - Carregueiro - Castro Verde",1700,37.7841666667,-8.0546666667,,,,,,
"Ermesinde - Portagens A4",27285,41.2006666667,-8.5545,,,,,,
"Ermesinde - Sta Rita",27286,41.2095,-8.547,,,,,,
"Espindo - Vieira do Minho",27280,41.665,-8.0841666667,,,,,,
"Estação Agronómica Nacional - Oeiras",1547,38.6941666667,-9.3146666667,,,,,,
"Estarreja - Salreu - Área nº 5",1632,40.72791,-8.5825,,,,,,
"Estarreja - Salreu - Percurso de Salreu",27067,40.7345,-8.5706666667,,,,,,
"Estarreja - Salreu - Percurso do Rio Jardim",27062,40.7316666667,-8.568,,,,,,
"Estefânia, Lisboa",189,38.731,-9.1395,,,,,,
"Esteiro do Montijo",193,38.6991666667,-8.9698333333,,,,,,
"Esteiro do Montijo",192,38.6993333333,-8.972,,,,,,
"Estrada Exterior Circunvalação próximo I.P.O.",27592,1,1,,,,,,
"Estuário do Douro - Porto",27508,1,1,,,,,,
"Estuário do Mira",151,37.71740556,-8.788238889,,,,,,
"Estuário do Sado - Salinas de Praias do Sado",395,38.5156666667,-8.8208333333,,,,,,
"Estuário do Sado IBA",29,38.45,-8.7167,,,,,,
"ETAR de Atouguia da Baleia",1740,"39.3475","-9.3371666666667","Portugal (mainland)","Atoguia da Baleia--ETAR","10","PT","39.3480835","-9.3364048"
"ETAR de Ponta Delgada, SMi, Açores",330,37.7418333333,-25.6496666667,,,,,,
"ETAR de Porto de Lobos, Peniche",1576,"39.348166666667","-9.3363333333333","Portugal (mainland)","Atoguia da Baleia--ETAR","10","PT","39.3480835","-9.3364048"
"Évora - Canaviais",1825,38.6151666667,-7.9005,,,,,,
"Falésia, Albufeira (Faro)",27096,37.087,-8.1683333333,,,,,,
"Farilhão Grande",27551,39.4785,-9.5451666667,,,,,,
"Faro - Ludo - Área nº 2",1697,37.0316,-7.9948,,,,,,
"Faro - Ludo - Área nº 4",1699,37.0193333333,-8.0026666667,,,,,,
"FD56_C (Açores)",26299,39.4213133529,-31.2457875335,,,,,,
"FD56_E (Açores)",26285,39.4573391145,-31.2448833714,,,,,,
"FD56_G (Açores)",26307,39.4029479678,-31.2230207821,,,,,,
"FD56_J (Açores)",26286,39.4569860268,-31.2216472225,,,,,,
"FD56_L (Açores)",26308,39.4025909231,-31.1998029679,,,,,,
"FD56_M (Açores)",26301,39.4206034424,-31.1993395564,,,,,,
"FD56_P (Açores)",26287,39.4566282995,-31.198411485,,,,,,
"FD56_Q (Açores)",26315,39.3842168983,-31.1770545286,,,,,,
"FD57_A (Açores)",26278,39.4753519049,-31.2444306814,,,,,,
"FD57_G (Açores)",26273,39.4930110974,-31.2207294596,,,,,,
"FD57_K (Açores)",26280,39.4746406373,-31.1979468244,,,,,,
"FD57_M (Açores)",26268,39.5106651311,-31.197016251,,,,,,
"FD57_R (Açores)",26275,39.4921666667,-31.1741666667,,,,,,
"FD57_V (Açores)",26282,39.4739108003,-31.1514646361,,,,,,
"FD69_B (Açores)",25825,39.6716629007,-31.1228867384,,,,,,
"FD69_C (Açores)",25822,39.6896738058,-31.1223988966,,,,,,
"FD69_D (Açores)",25819,39.7076846498,-31.1219106163,,,,,,
"FD69_G (Açores)",25826,39.6712837343,-31.0995805435,,,,,,
"FD69_H (Açores)",25823,39.6892943984,-31.0990866535,,,,,,
"FD69_I (Açores)",25820,39.7073050012,-31.0985923195,,,,,,
"Ferreira do Alentejo",27399,38.115,-8.3041666667,,,,,,
"Ferreira do Zêzere - Carril",265,39.7515,-8.3125,,,,,,
"Figueira e Barros",27415,39.0455,-7.7618333333,,,,,,
"Figueiró da Serra, Gouveia",27446,40.544721,-7.489602,,,,,,
"Folsas",27297,40.5451666667,-8.6733333333,,,,,,
"Fornelos - Caniçada",27283,41.6805,-8.1445,,,,,,
"Foros Salvaterra de Magos",1897,39.0265,-8.7413333333,,,,,,
"Fortios 01",27553,39.3336666667,-7.4945,,,,,,
"Foz do Almargem",27566,"37.060666666667","-8.0811666666667",,"Foz do Almargem","08","PT","37.0611093","-8.0817801"
"Foz do Côa, Vila Nova de Foz Côa",1745,41.0725,-7.1101666667,,,,,,
"Foz do Rio Trancão - Parque Tejo",27113,"38.796666666667","-9.0903333333333","Portugal (mainland)","Estuário do Tejo--Foz do Trancão","11","PT","38.7962394","-9.0906286"
"Foz do Sizandro, Silveira",391,"39.102","-9.4008333333333","Portugal (mainland)","Foz do Sizandro","11","PT","39.1034512","-9.3991846"
"Freixo",27515,39.7071666667,-7.8881666667,,,,,,
"Freixo da Serra, Gouveia",27455,40.52927,-7.503517,,,,,,
"Fronhas (barragem), Arganil",27421,40.246446,-8.165014,,,,,,
"Funchal - Jardim do Amparo",27598,32.643,-16.9458333333,,,,,,
"Funchal pelagico",27560,32.5675,-16.8993333333,,,,,,
"Funchal pelagico",27559,32.5675,-16.8993333333,,,,,,
"Funchal, Parque Santa Catarina",27320,32.6451666667,-16.914,,,,,,
"Gâmbia, Setúbal",27086,38.53689,-8.781509,,,,,,
"Gavieira, Arcos de Valdevez",27514,41.969617,-8.223393,,,,,,
"Gouveia (centro)",27409,40.49283,-7.593417,,,,,,
"Guia-Boca do Inferno, Cascais",266,"38.695333333333","-9.4413333333333",,"PN Sintra-Cascais--Boca do Inferno","11","PT","38.6905847","-9.4297184"
"Herdade da Abegoaria, Mourão",27324,38.3523333333,-7.288,,,,,,
"Herdade do Esporão",135,38.37886389,-7.560141667,,,,,,
"Hortas/Ribeira das Enguias",145,"38.75441111","-8.924480556","Portugal (mainland)","Estuário do Tejo--Ribeira das Enguias","15","PT","38.7478581","-8.9222717"
"Ilha da Morraceira",2025,"40.134333333333","-8.8275","Portugal (mainland)","IBA Estuário do Mondego--Ilha da Murraceira","06","PT","40.1322973","-8.8281155"
"ilha das murraceiras",27292,"40.137333333333","-8.8338333333333","Portugal (mainland)","IBA Estuário do Mondego--Ilha da Murraceira","06","PT","40.1322973","-8.8281155"
"Ilha do Corvo",1834,39.6956666667,-31.1076666667,,,,,,
"Jamor - Cruz Quebrada",27389,"38.707333333333","-9.2545",,"Complexo Desportivo Nacional do Jamor","11","PT","38.704301","-9.2553314"
"Jamor - Cruz Quebrada",27391,38.7073333333,"-9.2545",,,,,,
"Jardim Botânico, Universidade de Lisboa",27215,"38.717666666667","-9.1513333333333","Portugal (mainland)","Jardim Botânico da Universidade de Lisboa","11","PT","38.7183026","-9.1488148"
"Jardim Calouste Gulbenkian, Lisboa",325,"38.736333333333","-9.1536666666667","Portugal (mainland)","Jardins da Fundação Calouste Gulbenkian","11","PT","38.7372396","-9.1533645"
"Jardim do Cabeço das Rolas, Lisboa",1605,"38.760312","-9.098246","Portugal (mainland)","Jardim do Cabeço das Rolas","11","PT","38.7603838","-9.0982827"
"Jardim Palácio Nacional de Belém e Jardim Botânico Tropica",1799,38.69746,-9.2009,,,,,,
"Jardim Urbano da Costa da Caparica",27183,38.649313,-9.239008,,,,,,
"Jardins do Hotel do Caramulo",27461,40.57,-8.1731666667,,,,,,
"Jardins Palácio Nacional Queluz, Queluz",1781,38.755991,-9.260745,,,,,,
"José Heitor",27594,39.7071666667,-7.8881666667,,,,,,
"Juizo",27274,40.8776666667,-7.1403333333,,,,,,
"Juncal do Campo, Castelo Branco",1795,39.919743,-7.56958,,,,,,
"Lagarinhos, Gouveia",27424,40.488036,-7.669617,,,,,,
"Lagoa azul - Sintra",1583,38.7686666667,-9.397,,,,,,
"Lagoa Azul, São Miguel",332,"37.865666666667","-25.783166666667",,"Lagoa Azul","20","PT","37.8604888","-25.7848263"
"Lagoa Branca",27540,38.6855,-28.2128333333,,,,,,
"Lagoa da Salgueira",27393,40.2966666667,-8.7838333333,,,,,,
"Lagoa da Vela",27392,40.267,-8.7913333333,,,,,,
"Lagoa das Furnas, SMi, Açores",160,"37.75416111","-25.33586944",,"Lagoa das Furnas","20","PT","37.7559078","-25.3308204"
"Lagoa de Albufeira",1535,"38.5105","-9.1786666666667",,"Lagoa de Albufeira--Lagoa da Estacada, IBA Lagoa Pequena e Lagoa Grande","15","PT","38.5166083","-9.1671896"
"Lagoa de Albufeira - Lagoa pequena",1534,"38.523666666667","-9.143","Portugal (mainland)","Lagoa de Albufeira--IBA Lagoa Pequena","15","PT","38.5184892","-9.162941"
"Lagoa de Albufeira (Lagoas Grande, Pequena e Estacada)",273,"38.526166666667","-9.1411666666667",,"Lagoa de Albufeira--Lagoa da Estacada, IBA Lagoa Pequena e Lagoa Grande","15","PT","38.5166083","-9.1671896"
"Lagoa de Melides",329,38.1323333333,-8.7865,,,,,,
"Lagoa de Mira",27228,40.4416666667,-8.7553333333,,,,,,
"Lagoa de Óbidos",1575,"39.388666666667","-9.2218333333333",,"Lagoa de Óbidos","10","PT","39.4045003","-9.206672"
"Lagoa de Óbidos, lado sul",1625,"39.396666666667","-9.2138333333333",,"Lagoa de Óbidos","10","PT","39.4045003","-9.206672"
"Lagoa de Santo André",202,38.094,-8.7841666667,,,,,,
"Lagoa dos Patos",136,"38.16163056","-8.06145",,"Lagoa dos Patos","02","PT","38.161096","-8.0620122"
"Lagoa dos Patos",228,38.1588333333,-8.0678333333,,,,,,
"Lagoa dos Salgados",156,"37.09583611","-8.330897222","Portugal (mainland)","IBA Lagoa dos Salgados","08","PT","37.09469","-8.3313704"
"Lagoa dos Salgados IBA",45,"38.51666667","-9.15","Portugal (mainland)","IBA Lagoa dos Salgados","08","PT","37.09469","-8.3313704"
"Lagoa Pequena IBA",46,"38.51666667","-9.15",,,,,,
"Lagoacho (barragem), Sabugueiro, Seia",27435,40.385477,-7.617307,,,,,,
"Lagoas da U. Aveiro",27599,40.636,-8.6588333333,,,,,,
"Lamas de Mouro, Melgaço",381,"42.0425","-8.2008333333333",,"PN Peneda-Gerês--Lamas de Mouro","16","PT","42.0430463","-8.200779"
"Lamego - cidade",27529,41.0966666667,-7.8123333333,,,,,,
"Lardosa, Castelo Branco",27408,39.995204,-7.441585,,,,,,
"Lavadores - Vila Nova de Gaia",27314,41.131657,-8.670322,,,,,,
"Lezíria Grande de Vila Franca de Xira, Estuário do Tejo",288,"38.888166666667","-8.9391666666667","Portugal (mainland)","Estuário do Tejo--Lezí­ria Grande de Vila Franca de Xira","11","PT","38.8915673","-8.9387512"
"LH47_B (Açores)",25581,38.5905192629,-28.8244919532,,,,,,
"LH47_H (Açores)",25587,38.6088897985,-28.8019890594,,,,,,
"LH47_L (Açores)",25595,38.5912261363,-28.7785846989,,,,,,
"LH47_Q (Açores)",25599,38.5735574677,-28.7551917994,,,,,,
"LH47_S (Açores)",25622,38.609588121,-28.7560695391,,,,,,
"LH47_W (Açores)",25594,38.5919150128,-28.7326758551,,,,,,
"LH56_D (Açores)",26111,38.5382051465,-28.7084403458,,,,,,
"LH56_J (Açores)",26117,38.5565538199,-28.6859228654,,,,,,
"LH56_N (Açores)",26119,38.5388657527,-28.6625635408,,,,,,
"LH56_S (Açores)",26126,38.5211727166,-28.6392156503,,,,,,
"LH56_U (Açores)",26122,38.5572058606,-28.6400338746,,,,,,
"LH56_Y (Açores)",26109,38.5395083918,-28.6166852529,,,,,,
"LH66_R (Açores)",26033,38.5047045129,-28.5241640305,,,,,,
"LH66_T (Açores)",26010,38.5407397625,-28.5249243921,,,,,,
"LH75_H (Açores)",25632,38.4335062948,-28.4539258212,,,,,,
"LH75_J (Açores)",25583,38.4695431352,-28.4546493053,,,,,,
"LH75_L (Açores)",25597,38.4157696489,-28.4306624128,,,,,,
"LH75_P (Açores)",25580,38.4698255403,-28.4317300777,,,,,,
"LH75_U (Açores)",25592,38.4701034631,-28.4088105318,,,,,,
"LH75_Y (Açores)",25624,38.4523579776,-28.3855458618,,,,,,
"LH76_E (Açores)",25634,38.5593464048,-28.4794111475,,,,,,
"LH76_P (Açores)",25579,38.5599175254,-28.4335158915,,,,,,
"LH85_D (Açores)",25638,38.4526267628,-28.3626313925,,,,,,
"Linhares, Celorico da Beira",27413,40.541524,-7.461166,,,,,,
"Lisboa",397,38.7368333333,-9.1185,,,,,,
"Lisboa",27313,38.721948,-9.135246,,,,,,
"Lisboa",27064,38.6926666667,-9.224,,,,,,
"Lisboa",398,38.7368333333,-9.1185,,,,,,
"Lisboa - aeroporto",1428,38.7711666667,-9.1355,,,,,,
"Lisboa - Av. João XXI",1666,38.7421666667,-9.1408333333,,,,,,
"Lisboa - Museu Nacional de História Natural",364,"38.717833333333","-9.1506666666667","Portugal (mainland)","Jardim Botânico da Universidade de Lisboa","11","PT","38.7183026","-9.1488148"
"Lisboa (Monsanto)",27333,38.7701666667,-9.1803333333,,,,,,
"Lisboa (Ponte Vasco da Gama)",27332,38.9008333333,-9.131,,,,,,
"Lisboa, Av. Lusíada",27355,38.7498333333,-9.1765,,,,,,
"Loulé - Estuário de São Lourenço - Área nº 1",1714,"37.024","-8.0171666666667",,"PN Ria Formosa--Quinta do Lago","08","PT","37.0246316","-8.0118258"
"Loures",27434,38.8185,-9.157,,,,,,
"Ludo",220,37.034,-7.9861666667,,,,,,
"Ludo/Quinta do Lago",157,"37.01913333","-8.014366667",,"PN Ria Formosa--Quinta do Lago","08","PT","37.0246316","-8.0118258"
"Luso, Serra do Buçaco, Mata do Buçaco",27501,40.3745,-8.3723333333,,,,,,
"Malhão, Gouveia",27436,40.45059,-7.560651,,,,,,
"Mangualde da Serra, Gouveia",27426,40.464167,-7.61562,,,,,,
"Maranhão",27369,39.0083333333,-7.9991666667,,,,,,
"Martinhal",1990,"37.021333333333","-8.928",,"PN Costa Vicentina e Sudoeste Alentejano--Martinhal","08","PT","37.0205671","-8.9285481"
"Marvão - Galegos - Área nº 1",1724,39.35555,-7.31361,,,,,,
"Mata da Machada, Barreiro",1811,38.609627,-9.0455353,,,,,,
"Mata da margaraça (Serra do Açor)",1766,40.2166666667,-7.9185,,,,,,
"Matosinhos-Praia Moderna",27315,41.1774557,-8.6917102,,,,,,
"MC58",688,38.7106,-9.51897,,,,,,
"MC58_Y",27016,38.7272465819,-9.4716905853,,,,,,
"MC58_Z",27015,38.7452689155,-9.4718091429,,,,,,
"MC59",709,38.8007,-9.51962,,,,,,
"MC59_V",26924,38.7632911931,-9.4719278067,,,,,,
"MC68",689,38.711,-9.40396,,,,,,
"MC68_C",2415,38.708,-9.44728,,,,,,
"MC68_E",2417,38.744,-9.44766,,,,,,
"MC68_G",2418,38.6901,-9.42411,,,,,,
"MC68_J",2421,38.7441,-9.42466,,,,,,
"MC68_M",2423,38.7082,-9.4013,,,,,,
"MC68_N",2424,38.7263,-9.40148,,,,,,
"MC68_S",2427,38.7084,-9.37832,,,,,,
"MC68_U",2429,38.7444,-9.37866,,,,,,
"MC68_W",2430,38.6905,-9.35516,,,,,,
"MC68_X",2431,38.7085,-9.35533,,,,,,
"MC69",710,38.8011,-9.40447,,,,,,
"MC69_A",2434,38.762,-9.44785,,,,,,
"MC69_E",2438,38.834,-9.44861,,,,,,
"MC69_I",2442,38.8162,-9.42539,,,,,,
"MC69_L",2445,38.7803,-9.40201,,,,,,
"MC69_P",2448,38.8343,-9.40255,,,,,,
"MC69_T",2452,38.8165,-9.37935,,,,,,
"MC78",690,38.7114,-9.28894,,,,,,
"MC78_A",2459,38.6726,-9.33202,,,,,,
"MC78_B",2460,38.6906,-9.33218,,,,,,
"MC78_D",2462,38.7267,-9.33249,,,,,,
"MC78_F",2464,38.6727,-9.30904,,,,,,
"MC78_G",2465,38.6907,-9.30919,,,,,,
"MC78_H",2466,38.7088,-9.30935,,,,,,
"MC78_I",2467,38.7268,-9.3095,,,,,,
"MC78_M",2471,38.7089,-9.28636,,,,,,
"MC78_N",2472,38.7269,-9.2865,,,,,,
"MC78_P",2473,38.7449,-9.28665,,,,,,
"MC78_S",2476,38.709,-9.26336,,,,,,
"MC78_U",2478,38.745,-9.26365,,,,,,
"MC78_X",2481,38.7091,-9.24037,,,,,,
"MC78_Z",2483,38.7451,-9.24065,,,,,,
"MC79_B",2485,38.7807,-9.33297,,,,,,
"MC79_F",2489,38.7628,-9.30981,,,,,,
"MC79_G",2490,38.7808,-9.30996,,,,,,
"MC79_K",2494,38.7629,-9.2868,,,,,,
"MC79_Q",2499,38.763,-9.26379,,,,,,
"MC79_V",2504,38.7631,-9.24078,,,,,,
"MC85_B",2510,38.4191,-9.21745,,,,,,
"MC86",651,38.5313,-9.17349,,,,,,
"MC86_J",2543,38.5633,-9.19572,,,,,,
"MC86_R",2550,38.5095,-9.14942,,,,,,
"MC86_S",2551,38.5275,-9.14956,,,,,,
"MC87",670,38.6215,-9.17371,,,,,,
"MC87_G",2565,38.5993,-9.19601,,,,,,
"MC87_P",2573,38.6535,-9.17348,,,,,,
"MC87_Q",2574,38.5815,-9.14996,,,,,,
"MC87_T",2577,38.6356,-9.15037,,,,,,
"MC87_V",2579,38.5817,-9.12701,,,,,,
"MC87_W",2580,38.5997,-9.12714,,,,,,
"MC87_X",2581,38.6177,-9.12727,,,,,,
"MC87_Y",2582,38.6357,-9.1274,,,,,,
"MC87_Z",2583,38.6537,-9.12753,,,,,,
"MC88",691,38.7116,-9.17393,,,,,,
"MC88_B",2585,38.6912,-9.21725,,,,,,
"MC88_D",2587,38.7272,-9.21751,,,,,,
"MC88_F",2589,38.6733,-9.19414,,,,,,
"MC88_G",2590,38.6913,-9.19427,,,,,,
"MC88_H",2591,38.7093,-9.19439,,,,,,
"MC88_J",2593,38.7453,-9.19464,,,,,,
"MC88_M",2596,38.7094,-9.1714,,,,,,
"MC88_N",2597,38.7274,-9.17152,,,,,,
"MC88_P",2598,38.7454,-9.17164,,,,,,
"MC88_S",2601,38.7095,-9.14841,,,,,,
"MC88_T",2602,38.7275,-9.14852,,,,,,
"MC88_U",2603,38.7455,-9.14864,,,,,,
"MC88_Z",2608,38.7456,-9.12563,,,,,,
"MC89_B",2610,38.7813,-9.21791,,,,,,
"MC89_D",2612,38.8173,-9.21817,,,,,,
"MC89_J",2618,38.8354,-9.19527,,,,,,
"MC89_K",2619,38.7634,-9.17176,,,,,,
"MC89_L",2620,38.7815,-9.17188,,,,,,
"MC89_Q",2624,38.7635,-9.14875,,,,,,
"MC89_T",2627,38.8176,-9.14909,,,,,,
"MC89_U",2628,38.8356,-9.14921,,,,,,
"MC89_V",2629,38.7636,-9.12574,,,,,,
"MC96_B",2660,38.5097,-9.10357,,,,,,
"MC96_F",2664,38.4918,-9.08052,,,,,,
"MC96_I",2667,38.5458,-9.08088,,,,,,
"MC96_Q",2674,38.4919,-9.03468,,,,,,
"MC96_S",2676,38.528,-9.03489,,,,,,
"MC96_W",2680,38.51,-9.01186,,,,,,
"MC97",671,38.6216,-9.05884,,,,,,
"MC97_B",2685,38.5998,-9.10419,,,,,,
"MC97_C",2686,38.6178,-9.10431,,,,,,
"MC97_D",2687,38.6358,-9.10444,,,,,,
"MC97_E",2688,38.6538,-9.10456,,,,,,
"MC97_H",2691,38.6179,-9.08135,,,,,,
"MC97_I",2692,38.6359,-9.08147,,,,,,
"MC97_L",2695,38.6,-9.05827,,,,,,
"MC97_S",2701,38.6181,-9.03542,,,,,,
"MC97_U",2703,38.6541,-9.03564,,,,,,
"MC97_Y",2707,38.6361,-9.01256,,,,,,
"MC99_A",2734,38.7637,-9.10273,,,,,,
"MC99_F",2739,38.7638,-9.07972,,,,,,
"MC99_H",2741,38.7998,-9.07992,,,,,,
"MD60_R",2795,38.8705,-9.37986,,,,,,
"MD60_W",2800,38.8706,-9.35682,,,,,,
"MD61_H",2811,38.9783,-9.42706,,,,,,
"MD61_J",2813,39.0143,-9.42743,,,,,,
"MD61_K",2814,38.9424,-9.40362,,,,,,
"MD61_N",2817,38.9964,-9.40416,,,,,,
"MD61_S",2821,38.9786,-9.38091,,,,,,
"MD61_Z",2828,39.0147,-9.35816,,,,,,
"MD62_K",2839,39.0325,-9.40452,,,,,,
"MD62_M",2841,39.0685,-9.40489,,,,,,
"MD62_P",2843,39.1045,-9.40525,,,,,,
"MD62_R",2845,39.0506,-9.3816,,,,,,
"MD62_U",2848,39.1047,-9.38213,,,,,,
"MD62_V",2849,39.0327,-9.35833,,,,,,
"MD62_Y",2852,39.0868,-9.35884,,,,,,
"MD63",798,39.1616,-9.40652,,,,,,
"MD63_Q",26916,39.1240648239,-9.3817815357,,,,,,
"MD63_R",26907,39.1420861412,-9.3818788626,,,,,,
"MD63_W",26921,39.1421596701,-9.3587372357,,,,,,
"MD63_Y",26904,39.1782022303,-9.3589203402,,,,,,
"MD65_N",2864,39.3568,-9.40487,,,,,,
"MD65_T",2868,39.3569,-9.38167,,,,,,
"MD65_U",2869,39.3749,-9.38183,,,,,,
"MD65_X",2871,39.339,-9.35831,,,,,,
"MD65_Y",2872,39.357,-9.35847,,,,,,
"MD70_C",2876,38.8888,-9.33394,,,,,,
"MD70_G",2880,38.8709,-9.31074,,,,,,
"MD70_I",2882,38.9069,-9.31105,,,,,,
"MD70_J",2883,38.9249,-9.3112,,,,,,
"MD70_K",2884,38.853,-9.28754,,,,,,
"MD70_M",2886,38.889,-9.28785,,,,,,
"MD70_V",2894,38.8532,-9.24147,,,,,,
"MD70_X",2896,38.8892,-9.24175,,,,,,
"MD71_A",2899,38.9428,-9.33443,,,,,,
"MD71_D",2902,38.9968,-9.33491,,,,,,
"MD71_G",2905,38.9609,-9.31152,,,,,,
"MD71_J",2908,39.015,-9.31199,,,,,,
"MD71_L",2910,38.9611,-9.28845,,,,,,
"MD71_N",2912,38.9971,-9.28875,,,,,,
"MD71_W",2920,38.9613,-9.2423,,,,,,
"MD71_Z",2923,39.0153,-9.24272,,,,,,
"MD72_B",2925,39.0509,-9.3354,,,,,,
"MD72_J",2933,39.105,-9.31278,,,,,,
"MD72_K",2934,39.0331,-9.28905,,,,,,
"MD72_M",2936,39.0691,-9.28935,,,,,,
"MD72_U",2943,39.1053,-9.26654,,,,,,
"MD72_W",2945,39.0514,-9.243,,,,,,
"MD73_A",2949,39.1229,-9.33606,,,,,,
"MD73_D",2952,39.177,-9.33655,,,,,,
"MD73_I",2957,39.1771,-9.31341,,,,,,
"MD73_L",2960,39.1412,-9.28996,,,,,,
"MD73_P",2963,39.1952,-9.29042,,,,,,
"MD73_Q",2964,39.1233,-9.26669,,,,,,
"MD73_T",2967,39.1773,-9.26713,,,,,,
"MD73_X",2971,39.1594,-9.24384,,,,,,
"MD74",821,39.252,-9.29115,,,,,,
"MD74_A",2974,39.213,-9.33688,,,,,,
"MD74_C",2976,39.249,-9.33721,,,,,,
"MD74_E",2978,39.285,-9.33754,,,,,,
"MD74_N",2987,39.2673,-9.29104,,,,,,
"MD74_Q",2989,39.2134,-9.26742,,,,,,
"MD74_U",2993,39.2854,-9.26801,,,,,,
"MD75_B",3000,39.3211,-9.33497,,,,,,
"MD75_D",3002,39.3571,-9.33527,,,,,,
"MD75_H",3006,39.3393,-9.31192,,,,,,
"MD75_J",3008,39.3753,-9.31221,,,,,,
"MD75_V",3019,39.3035,-9.24208,,,,,,
"MD75_Z",3023,39.3756,-9.24259,,,,,,
"MD80_D",3027,38.9074,-9.21883,,,,,,
"MD80_F",3029,38.8534,-9.1954,,,,,,
"MD80_G",3030,38.8714,-9.19552,,,,,,
"MD80_H",3031,38.8894,-9.19565,,,,,,
"MD80_N",3037,38.9076,-9.17272,,,,,,
"MD80_Q",3039,38.8536,-9.14932,,,,,,
"MD80_S",3041,38.8896,-9.14955,,,,,,
"MD80_V",3044,38.8537,-9.12628,,,,,,
"MD81_A",3049,38.9434,-9.2191,,,,,,
"MD81_E",3053,39.0154,-9.21963,,,,,,
"MD81_I",3057,38.9975,-9.19641,,,,,,
"MD81_L",3060,38.9616,-9.17309,,,,,,
"MD81_S",3066,38.9797,-9.15013,,,,,,
"MD81_Z",3073,39.0158,-9.12727,,,,,,
"MD82_A",3074,39.0335,-9.21976,,,,,,
"MD82_E",3078,39.1055,-9.2203,,,,,,
"MD82_G",3080,39.0516,-9.1968,,,,,,
"MD82_J",3083,39.1056,-9.19718,,,,,,
"MD82_L",3085,39.0517,-9.1737,,,,,,
"MD82_M",3086,39.0697,-9.17382,,,,,,
"MD82_S",3091,39.0698,-9.15071,,,,,,
"MD83_C",3101,39.1595,-9.22071,,,,,,
"MD83_E",3103,39.1956,-9.22098,,,,,,
"MD83_K",3109,39.1237,-9.17418,,,,,,
"MD83_L",3110,39.1417,-9.17431,,,,,,
"MD83_N",3112,39.1778,-9.17455,,,,,,
"MD83_R",3115,39.1418,-9.15118,,,,,,
"MD83_S",3116,39.1598,-9.15129,,,,,,
"MD83_T",3117,39.1778,-9.15141,,,,,,
"MD83_X",3121,39.1599,-9.12816,,,,,,
"MD84_Z",3148,39.286,-9.12894,,,,,,
"MD86_A",3174,39.3937,-9.2195,,,,,,
"MD86_C",3176,39.4297,-9.21975,,,,,,
"MD86_F",3179,39.3938,-9.19629,,,,,,
"MD86_J",3183,39.4658,-9.19676,,,,,,
"MD86_K",3184,39.3939,-9.17308,,,,,,
"MD86_U",3193,39.466,-9.15028,,,,,,
"MD86_V",3194,39.394,-9.12665,,,,,,
"MD91_B",3250,38.9619,-9.10387,,,,,,
"MD91_F",3254,38.9439,-9.0807,,,,,,
"MD91_J",3258,39.016,-9.08109,,,,,,
"MD91_Q",3264,38.9441,-9.03456,,,,,,
"MD91_T",3267,38.9981,-9.03482,,,,,,
"MD91_Z",3273,39.0162,-9.01182,,,,,,
"MD92_A",3274,39.0339,-9.10428,,,,,,
"MD92_E",3278,39.106,-9.1047,,,,,,
"MD92_G",3280,39.052,-9.08129,,,,,,
"MD92_K",3284,39.0341,-9.05809,,,,,,
"MD92_W",3295,39.0522,-9.01198,,,,,,
"MD92_Z",3298,39.1063,-9.01222,,,,,,
"MD93_N",3312,39.1782,-9.05884,,,,,,
"MD95_D",3352,39.3581,-9.10325,,,,,,
"MD95_G",3355,39.3221,-9.07987,,,,,,
"MD95_J",3358,39.3762,-9.08013,,,,,,
"MD95_M",3361,39.3402,-9.05676,,,,,,
"MD95_U",3368,39.3763,-9.03371,,,,,,
"MD95_V",3369,39.3043,-9.01023,,,,,,
"MD97_U",3418,39.5564,-9.03446,,,,,,
"MD97_Z",3423,39.5565,-9.0112,,,,,,
"MD98",895,39.6128,-9.05967,,,,,,
"MD98_F",3429,39.5743,-9.08109,,,,,,
"MD98_H",3431,39.6103,-9.08127,,,,,,
"MD98_T",3442,39.6285,-9.03477,,,,,,
"MD98_X",3446,39.6105,-9.0114,,,,,,
"MD98_Z",3448,39.6465,-9.01154,,,,,,
"MD99_W",3470,39.6826,-9.01169,,,,,,
"Mêda",27275,40.952,-7.2426666667,,,,,,
"Melo, Gouveia",27441,40.524254,-7.533327,,,,,,
"Mem Martins, Sintra",1638,38.7878333333,-9.3511666667,,,,,,
"Mertola",2126,"37.649","-7.6683333333333",,"PN Vale do Guadiana--Mértola","02","PT","37.6404029","-7.6615477"
"Mértola",1772,"37.636333333333","-7.6645",,"PN Vale do Guadiana--Mértola","02","PT","37.6404029","-7.6615477"
"Meruje - Serra do Caramulo",27462,40.5951666667,-8.0803333333,,,,,,
"Mesão Frio",27278,41.1583333333,-7.882,,,,,,
"Mexilhoeira grande (rocha delicada - Quinta da Rocha)",27354,37.1323333333,-8.6146666667,,,,,,
"MH05_B (Açores)",25922,38.4190266858,-28.1329074081,,,,,,
"MH05_H (Açores)",25959,38.4372668213,-28.1102771947,,,,,,
"MH05_L (Açores)",25945,38.4194606394,-28.0870948942,,,,,,
"MH05_Q (Açores)",25955,38.4016496514,-28.0639239713,,,,,,
"MH05_S (Açores)",25968,38.4376920955,-28.0644528105,,,,,,
"MH05_W (Açores)",25978,38.4198766883,-28.0412814151,,,,,,
"MH78_A (Açores)",25847,38.67636606,-27.332238551,,,,,,
"MH78_N (Açores)",25834,38.7305573551,-27.2864702324,,,,,,
"MH78_T (Açores)",25835,38.7306114715,-27.2634608306,,,,,,
"MH88_C (Açores)",25557,38.7126828426,-27.2173872439,,,,,,
"MH88_K (Açores)",25543,38.676712509,-27.1712936394,,,,,,
"MH88_M (Açores)",25559,38.7127593271,-27.1713796298,,,,,,
"MH88_R (Açores)",25555,38.6947673795,-27.1483385217,,,,,,
"MH88_V (Açores)",25539,38.6767708161,-27.1253089557,,,,,,
"MH88_X (Açores)",25540,38.7128177089,-27.1253718617,,,,,,
"MH98_B (Açores)",25892,38.6948166784,-27.1023422395,,,,,,
"MH98_D (Açores)",25903,38.7308634885,-27.1023936492,,,,,,
"MH98_F (Açores)",25901,38.6768110436,-27.0793241596,,,,,,
"MH98_J (Açores)",25888,38.7489047096,-27.0794038737,,,,,,
"MH98_L (Açores)",25904,38.6948478861,-27.0563458654,,,,,,
"MH98_N (Açores)",25895,38.7308947362,-27.0563741698,,,,,,
"Mira Serra, Gouveia",27439,40.503722,-7.604358,,,,,,
"Miranda do Douro",27534,41.4931666667,-6.273,,,,,,
"Mirandela",27489,41.4961666667,-7.185,,,,,,
"Mitrena, Setúbal",27271,38.4886666667,-8.8061666667,,,,,,
"MJ02_S (Açores)",26151,39.0683978246,-28.073862255,,,,,,
"MJ02_V (Açores)",26152,39.0325697043,-28.0502133373,,,,,,
"MJ12_C (Açores)",26154,39.0688144125,-28.0276320196,,,,,,
"MJ12_I (Açores)",26134,39.0870353616,-28.0047721103,,,,,,
"MJ12_K (Açores)",26145,39.0331732007,-27.9809021508,,,,,,
"MJ12_L (Açores)",26142,39.0511929673,-27.9811513875,,,,,,
"Moimenta da Serra, Gouveia",27425,40.473866,-7.643325,,,,,,
"Moinho da Mourisca - RNES",1545,38.5283333333,-8.8033333333,,,,,,
"Molhe-Leste, Peniche",235,39.3506666667,-9.369,,,,,,
"Monforte",1720,39.055,-7.4406666667,,,,,,
"Monfortinho",27267,40.0001666667,-6.9356666667,,,,,,
"Montalvão",2160,39.5936666667,-7.524,,,,,,
"Monte da Atalaia, no lugar de Monte Fildalgo, Freguesia Perais, município Castelo Branco",27492,39.6671666667,-7.549,,,,,,
"Monte da Fonte Cigana",27383,38.7765,-7.5675,,,,,,
"Monte Funchal",27555,32.6681666667,-16.8983333333,,,,,,
"Monte Ribeiro",27357,38.4036666667,-8.07,,,,,,
"Monte, Murtosa",275,40.751,-8.6446666667,,,,,,
"Montemor-o-Velho",27420,"40.175","-8.6845",,"IBA Paul do Taipal","06","PT","40.1803438","-8.6874084"
"Montesinho",104,41.89205556,-6.838988889,,,,,,
"Mourão (Barzeco)",27573,38.3678333333,-7.3536666667,,,,,,
"Mourão, Moura e Barrancos IBA",56,38.13333333,-7.166666667,,,,,,
"Murça, V.N.Foz Côa",27437,41.1005,-7.2321666667,,,,,,
"Muro, Trofa",27513,41.286331,-8.602144,,,,,,
"Murtosa - Reserva Natural das Dunas de São Jacinto - Pateira - Área nº 1",1770,40.68831,-8.72652,,,,,,
"NA09_D",3477,37.0166,-8.98967,,,,,,
"NA09_J",3483,37.0346,-8.96714,,,,,,
"NA09_M",3486,36.9985,-8.94479,,,,,,
"NA09_P",3488,37.0345,-8.94466,,,,,,
"NA09_S",3491,36.9984,-8.92232,,,,,,
"NA09_T",3492,37.0165,-8.92225,,,,,,
"NA09_Z",3498,37.0344,-8.8997,,,,,,
"NA89",401,36.9954,-8.04607,,,,,,
"NA99",402,36.9945,-7.93371,,,,,,
"NA99_C",3499,36.993235,-7.977583,,,,,,
"NA99_D",3500,37.01126,-7.977341,,,,,,
"NA99_E",3501,37.0292,-7.97435,,,,,,
"NA99_I",26404,37.0110646292,-7.9548643478,,,,,,
"NA99_J",3504,37.029,-7.95187,,,,,,
"NA99_Y",3511,37.0106,-7.88461,,,,,,
"Nabais, Gouveia",27430,40.520721,-7.561223,,,,,,
"NB00_F",3517,37.0526,-8.96707,,,,,,
"NB00_M",3524,37.0886,-8.94446,,,,,,
"NB00_R",3528,37.0705,-8.92204,,,,,,
"NB00_U",3531,37.1246,-8.92182,,,,,,
"NB00_V",3532,37.0524,-8.89963,,,,,,
"NB00_Y",3535,37.1065,-8.8994,,,,,,
"NB10",406,37.0893,-8.83252,,,,,,
"NB11_B",3563,37.1605,-8.87665,,,,,,
"NB11_C",3564,37.1785,-8.87657,,,,,,
"NB11_D",3565,37.1965,-8.87649,,,,,,
"NB11_G",3568,37.1604,-8.85413,,,,,,
"NB11_J",3571,37.2145,-8.85387,,,,,,
"NB11_N",3575,37.1964,-8.83144,,,,,,
"NB11_P",3576,37.2144,-8.83134,,,,,,
"NB11_R",3578,37.1603,-8.80911,,,,,,
"NB11_U",3581,37.2143,-8.80881,,,,,,
"NB11_V",3582,37.1422,-8.78669,,,,,,
"NB11_Y",3585,37.1962,-8.78638,,,,,,
"NB13_F",3617,37.3226,-8.85335,,,,,,
"NB13_V",3632,37.3224,-8.78566,,,,,,
"NB15_T",3680,37.5567,-8.80695,,,,,,
"NB15_U",3681,37.5747,-8.80686,,,,,,
"NB15_V",3682,37.5026,-8.78463,,,,,,
"NB15_W",3683,37.5206,-8.78453,,,,,,
"NB15_X",3684,37.5386,-8.78442,,,,,,
"NB15_Z",3686,37.5747,-8.78422,,,,,,
"NB16_T",3705,37.6468,-8.80647,,,,,,
"NB16_Y",3710,37.6467,-8.7838,,,,,,
"NB17",500,37.7202,-8.83111,,,,,,
"NB20",407,37.0891,-8.72001,,,,,,
"NB20_C",3789,37.088,-8.76451,,,,,,
"NB20_E",3791,37.1241,-8.76429,,,,,,
"NB20_I",3795,37.106,-8.7419,,,,,,
"NB20_P",3801,37.1239,-8.71928,,,,,,
"NB20_S",3804,37.0878,-8.69703,,,,,,
"NB20_W",3808,37.0696,-8.67466,,,,,,
"NB20_X",3809,37.0877,-8.67454,,,,,,
"NB20_Y",3810,37.1057,-8.67441,,,,,,
"NB20_Z",3811,37.1237,-8.67427,,,,,,
"NB21_G",3818,37.16,-8.74156,,,,,,
"NB21_H",3819,37.178,-8.74145,,,,,,
"NB22_E",3841,37.3043,-8.76321,,,,,,
"NB22_I",3845,37.2862,-8.74076,,,,,,
"NB22_S",3854,37.268,-8.69578,,,,,,
"NB22_U",3856,37.304,-8.69553,,,,,,
"NB24_B",3888,37.4304,-8.76245,,,,,,
"NB24_D",3890,37.4665,-8.76223,,,,,,
"NB24_F",3892,37.4123,-8.73996,,,,,,
"NB24_M",3899,37.4483,-8.71714,,,,,,
"NB24_U",3906,37.4842,-8.69428,,,,,,
"NB24_X",3909,37.4481,-8.67193,,,,,,
"NB28",515,37.8101,-8.7173,,,,,,
"NB28_B",3988,37.7908,-8.76028,,,,,,
"NB28_D",3990,37.8268,-8.76006,,,,,,
"NB28_H",3994,37.8087,-8.73746,,,,,,
"NB28_J",3996,37.8448,-8.73723,,,,,,
"NB28_N",4000,37.8266,-8.71463,,,,,,
"NB28_U",4006,37.8446,-8.69179,,,,,,
"NB29_D",4015,37.9161,-8.75844,,,,,,
"NB29_H",4019,37.8981,-8.73567,,,,,,
"NB29_K",4022,37.8621,-8.71288,,,,,,
"NB29_S",4029,37.8981,-8.69019,,,,,,
"NB29_U",4031,37.9341,-8.69023,,,,,,
"NB29_Y",4035,37.9161,-8.66746,,,,,,
"NB30",408,37.0887,-8.60749,,,,,,
"NB31_E",4041,37.2137,-8.65109,,,,,,
"NB31_F",4042,37.1415,-8.62913,,,,,,
"NB31_G",4043,37.1595,-8.62898,,,,,,
"NB31_H",4044,37.1775,-8.62884,,,,,,
"NB31_K",4047,37.1414,-8.60661,,,,,,
"NB31_L",4048,37.1594,-8.60647,,,,,,
"NB31_N",4050,37.1954,-8.60618,,,,,,
"NB31_Q",4052,37.1413,-8.5841,,,,,,
"NB31_W",4058,37.1592,-8.56144,,,,,,
"NB31_Z",4061,37.2132,-8.56097,,,,,,
"NB32_X",4084,37.2673,-8.5605,,,,,,
"NB32_Y",4085,37.2853,-8.56034,,,,,,
"NB33_B",4088,37.3398,-8.65015,,,,,,
"NB33_E",4091,37.3939,-8.64974,,,,,,
"NB33_J",4096,37.3938,-8.62715,,,,,,
"NB33_L",4098,37.3396,-8.60501,,,,,,
"NB33_P",4101,37.3937,-8.60457,,,,,,
"NB33_Q",4102,37.3215,-8.58259,,,,,,
"NB33_W",4108,37.3394,-8.55987,,,,,,
"NB33_Y",4110,37.3754,-8.55955,,,,,,
"NB35_B",4138,37.52,-8.64879,,,,,,
"NB35_D",4140,37.5561,-8.64852,,,,,,
"NB35_F",4142,37.5019,-8.62631,,,,,,
"NB35_H",4144,37.5379,-8.62602,,,,,,
"NB35_J",4146,37.574,-8.62574,,,,,,
"NB35_L",4148,37.5198,-8.60354,,,,,,
"NB39_C",4239,37.8981,-8.64471,,,,,,
"NB39_F",4242,37.8621,-8.62197,,,,,,
"NB39_L",4248,37.8801,-8.59924,,,,,,
"NB39_S",4254,37.8981,-8.5765,,,,,,
"NB39_U",4256,37.9342,-8.57648,,,,,,
"NB39_Y",4260,37.9161,-8.55374,,,,,,
"NB40",409,37.0883,-8.49497,,,,,,
"NB40_E",4266,37.123,-8.53925,,,,,,
"NB40_I",4270,37.1048,-8.51691,,,,,,
"NB40_P",4276,37.1227,-8.49424,,,,,,
"NB40_T",4280,37.1046,-8.47191,,,,,,
"NB40_X",4284,37.0864,-8.4496,,,,,,
"NB40_Z",4286,37.1224,-8.44923,,,,,,
"NB41",422,37.1784,-8.49437,,,,,,
"NB41_C",4289,37.1771,-8.53876,,,,,,
"NB41_F",4292,37.1409,-8.51658,,,,,,
"NB41_L",4298,37.1588,-8.49389,,,,,,
"NB41_N",4300,37.1948,-8.49355,,,,,,
"NB41_P",4301,37.2128,-8.49338,,,,,,
"NB41_S",4304,37.1766,-8.4712,,,,,,
"NB41_Y",4310,37.1945,-8.4485,,,,,,
"NB42_G",4318,37.249,-8.51557,,,,,,
"NB42_I",4320,37.285,-8.51524,,,,,,
"NB42_K",4322,37.2308,-8.4932,,,,,,
"NB42_S",4329,37.2667,-8.47031,,,,,,
"NB42_U",4331,37.3028,-8.46995,,,,,,
"NB42_W",4333,37.2486,-8.44795,,,,,,
"NB44_K",4372,37.411,-8.49147,,,,,,
"NB44_M",4374,37.4471,-8.49112,,,,,,
"NB44_P",4376,37.4831,-8.49078,,,,,,
"NB44_R",4378,37.4289,-8.4687,,,,,,
"NB44_T",4380,37.465,-8.46834,,,,,,
"NB45",477,37.539,-8.49195,,,,,,
"NB45_F",4392,37.5013,-8.51322,,,,,,
"NB46",490,37.6291,-8.49133,,,,,,
"NB46_A",4412,37.5915,-8.53502,,,,,,
"NB46_G",4418,37.6094,-8.51221,,,,,,
"NB46_K",4422,37.5912,-8.48973,,,,,,
"NB46_N",4425,37.6453,-8.48921,,,,,,
"NB46_R",4428,37.6091,-8.46691,,,,,,
"NB46_X",4434,37.627,-8.44407,,,,,,
"NB48_C",4464,37.8077,-8.53306,,,,,,
"NB48_E",4466,37.8438,-8.53274,,,,,,
"NB48_I",4470,37.8256,-8.51018,,,,,,
"NB48_P",4476,37.8435,-8.48729,,,,,,
"NB48_T",4480,37.8253,-8.46475,,,,,,
"NB48_Z",4486,37.8432,-8.44185,,,,,,
"NB49",533,37.8995,-8.48948,,,,,,
"NB49_V",4507,37.862,-8.44015,,,,,,
"NB50_Y",4535,37.1036,-8.33692,,,,,,
"NB51_D",4540,37.1944,-8.42597,,,,,,
"NB51_G",4543,37.1582,-8.40384,,,,,,
"NB51_K",4547,37.14,-8.38152,,,,,,
"NB51_P",4551,37.2121,-8.38072,,,,,,
"NB51_T",4555,37.1939,-8.3584,,,,,,
"NB51_X",4559,37.1757,-8.33608,,,,,,
"NB53_B",4588,37.3385,-8.42446,,,,,,
"NB53_C",4589,37.3566,-8.42427,,,,,,
"NB53_E",4591,37.3926,-8.42389,,,,,,
"NB53_G",4593,37.3384,-8.40189,,,,,,
"NB53_H",4594,37.3564,-8.4017,,,,,,
"NB53_I",4595,37.3744,-8.4015,,,,,,
"NB53_R",4603,37.3381,-8.35675,,,,,,
"NB53_S",4604,37.3561,-8.35655,,,,,,
"NB53_V",4607,37.3199,-8.3344,,,,,,
"NB53_Z",4611,37.392,-8.33355,,,,,,
"NB55_H",4644,37.5366,-8.39974,,,,,,
"NB55_I",4645,37.5546,-8.39955,,,,,,
"NB55_M",4649,37.5364,-8.37711,,,,,,
"NB55_N",4650,37.5545,-8.37691,,,,,,
"NB55_U",4656,37.5723,-8.35407,,,,,,
"NB55_Y",4660,37.5541,-8.33165,,,,,,
"NB57_I",4695,37.7348,-8.39759,,,,,,
"NB57_K",4697,37.6806,-8.3755,,,,,,
"NB57_M",4699,37.7166,-8.3751,,,,,,
"NB57_P",4701,37.7527,-8.3747,,,,,,
"NB57_R",4703,37.6984,-8.35262,,,,,,
"NB57_X",4709,37.7163,-8.32973,,,,,,
"NB59_D",4740,37.916,-8.41728,,,,,,
"NB59_G",4743,37.8799,-8.39464,,,,,,
"NB59_J",4746,37.934,-8.39448,,,,,,
"NB59_M",4749,37.8979,-8.37185,,,,,,
"NB59_U",4756,37.9339,-8.34898,,,,,,
"NB59_X",4759,37.8978,-8.32637,,,,,,
"NB60_C",4764,37.0854,-8.31464,,,,,,
"NB60_E",4766,37.1215,-8.31421,,,,,,
"NB60_I",4770,37.1033,-8.29193,,,,,,
"NB60_M",4774,37.0851,-8.26965,,,,,,
"NB60_T",4780,37.1029,-8.24693,,,,,,
"NB60_Z",4786,37.1208,-8.22419,,,,,,
"NB62_A",4812,37.2296,-8.31291,,,,,,
"NB62_C",4814,37.2656,-8.31248,,,,,,
"NB62_J",4821,37.3015,-8.28949,,,,,,
"NB62_S",4829,37.2651,-8.24484,,,,,,
"NB62_W",4833,37.2469,-8.22253,,,,,,
"NB62_Z",4836,37.301,-8.22182,,,,,,
"NB64",466,37.4477,-8.26646,,,,,,
"NB64_C",4864,37.4458,-8.31032,,,,,,
"NB64_E",4866,37.4819,-8.30988,,,,,,
"NB64_G",4868,37.4276,-8.28794,,,,,,
"NB64_I",4870,37.4637,-8.28749,,,,,,
"NB64_M",4874,37.4455,-8.26512,,,,,,
"NB64_X",4884,37.4451,-8.21992,,,,,,
"NB68",519,37.8082,-8.26291,,,,,,
"NB68_B",4963,37.7882,-8.30618,,,,,,
"NB68_F",4967,37.77,-8.2837,,,,,,
"NB68_H",4969,37.806,-8.28325,,,,,,
"NB68_Q",4977,37.7696,-8.2383,,,,,,
"NB68_W",4983,37.7875,-8.21536,,,,,,
"NB68_Z",4986,37.8415,-8.21464,,,,,,
"NB70",412,37.0864,-8.15744,,,,,,
"NB73_D",5090,37.3728,-8.19829,,,,,,
"NB73_H",5094,37.3546,-8.17596,,,,,,
"NB73_L",5098,37.3364,-8.15364,,,,,,
"NB73_P",5101,37.3905,-8.15288,,,,,,
"NB73_Q",5102,37.3182,-8.13134,,,,,,
"NB73_T",5105,37.3722,-8.13056,,,,,,
"NB75_C",5139,37.535,-8.19609,,,,,,
"NB75_G",5143,37.5168,-8.17372,,,,,,
"NB75_K",5147,37.4986,-8.15135,,,,,,
"NB75_N",5150,37.5526,-8.15058,,,,,,
"NB75_S",5154,37.5344,-8.12821,,,,,,
"NB75_W",5158,37.5162,-8.10585,,,,,,
"NB76_J",5171,37.661,-8.17171,,,,,,
"NB77",506,37.7173,-8.15035,,,,,,
"NB77_E",5191,37.7512,-8.19315,,,,,,
"NB77_H",5194,37.715,-8.17096,,,,,,
"NB77_I",5195,37.733,-8.17071,,,,,,
"NB77_L",5198,37.6968,-8.14854,,,,,,
"NB77_M",5199,37.7148,-8.14828,,,,,,
"NB77_N",5200,37.7328,-8.14802,,,,,,
"NB77_P",5201,37.7508,-8.14776,,,,,,
"NB77_S",5204,37.7146,-8.1256,,,,,,
"NB77_T",5205,37.7326,-8.12533,,,,,,
"NB77_W",5208,37.6964,-8.10318,,,,,,
"NB77_X",5209,37.7144,-8.10292,,,,,,
"NB78_J",5221,37.8411,-8.1692,,,,,,
"NB78_Y",5235,37.8225,-8.10131,,,,,,
"NB80",413,37.0855,-8.04494,,,,,,
"NB80_B",26450,37.0662543427,-8.0890831305,,,,,,
"NB80_J",26449,37.1201573804,-8.065925789,,,,,,
"NB80_K",26448,37.0478743937,-8.0443216637,,,,,,
"NB80_N",26467,37.101952111,-8.0436428134,,,,,,
"NB80_W",26458,37.0655293085,-7.9991088379,,,,,,
"NB80_Z",26465,37.1196061334,-7.998397413,,,,,,
"NB81",426,37.1757,-8.04381,,,,,,
"NB81_A",5264,37.1378,-8.08604,,,,,,
"NB81_C",26383,37.17441,-8.087786,,,,,,
"NB81_I",5270,37.1918,-8.06316,,,,,,
"NB81_M",5274,37.1736,-8.04076,,,,,,
"NB81_T",5280,37.1916,-8.01811,,,,,,
"NB81_Z",26385,37.209733,-7.997207,,,,,,
"NB82_A",26582,37.228487552,-8.0871354853,,,,,,
"NB82_F",26574,37.2283116655,-8.0645935249,,,,,,
"NB82_G",26590,37.2463371835,-8.0643707883,,,,,,
"NB82_K",26575,37.228131489,-8.0420517627,,,,,,
"NB82_N",26576,37.2822075236,-8.041366843,,,,,,
"NB82_Q",5290,37.2276,-8.01784,,,,,,
"NB82_S",26581,37.2639975288,-8.0190430558,,,,,,
"NB82_U",5291,37.2997,-8.01731,,,,,,
"NB82_V",26588,37.2277582661,-7.9969688519,,,,,,
"NB82_W",26584,37.2457834248,-7.9967300157,,,,,,
"NB82_Z",5293,37.2996,-7.99475,,,,,,
"NB84_E",5318,37.4802,-8.0838,,,,,,
"NB84_F",26720,37.4085643206,-8.0623572089,,,,,,
"NB84_H",5319,37.444,-8.06143,,,,,,
"NB84_I",5320,37.4621,-8.06131,,,,,,
"NB84_L",26725,37.4264078109,-8.0395314206,,,,,,
"NB84_Q",5322,37.4078,-8.0165,,,,,,
"NB84_U",5325,37.4799,-8.01596,,,,,,
"NB84_W",5326,37.4257,-7.99377,,,,,,
"NB84_Y",5328,37.4618,-7.99349,,,,,,
"NB86_B",26354,37.607014,-8.08253,,,,,,
"NB87",507,37.7164,-8.0369,,,,,,
"NB87_C",5351,37.7144,-8.08225,,,,,,
"NB87_I",5357,37.7324,-8.05945,,,,,,
"NB87_N",5362,37.7323,-8.03676,,,,,,
"NB87_Y",5372,37.732,-7.99138,,,,,,
"NB88_B",5375,37.7865,-8.08178,,,,,,
"NB88_D",5377,37.8226,-8.08154,,,,,,
"NB88_G",5380,37.7864,-8.05907,,,,,,
"NB88_H",5381,37.8044,-8.05895,,,,,,
"NB88_L",5385,37.7863,-8.03637,,,,,,
"NB88_Q",5389,37.7682,-8.0138,,,,,,
"NB88_X",5396,37.8041,-7.99082,,,,,,
"NB89_V",5419,37.8604,-7.9856,,,,,,
"NB92_A",26571,37.2275652201,-7.9744277129,,,,,,
"NB92_C",26559,37.2636152305,-7.9739390908,,,,,,
"NB92_F",26570,37.2273678846,-7.9518867912,,,,,,
"NB92_H",26551,37.2634176386,-7.9513874325,,,,,,
"NB92_I",26560,37.2814424311,-7.9511374196,,,,,,
"NB92_K",26567,37.2271662595,-7.9293460916,,,,,,
"NB92_L",26569,37.2451910338,-7.9290911577,,,,,,
"NB92_M",26556,37.2632157517,-7.9288359967,,,,,,
"NB92_S",26553,37.26300957,-7.9062847881,,,,,,
"NB92_Y",26552,37.2808234845,-7.8834676735,,,,,,
"NB93",455,37.3549,-7.92863,,,,,,
"NB93_A",5458,37.3175,-7.97205,,,,,,
"NB93_D",26647,37.3717639096,-7.9724679934,,,,,,
"NB93_G",26648,37.3355164701,-7.9503860438,,,,,,
"NB93_M",26649,37.3533384943,-7.9275567787,,,,,,
"NB93_T",26656,37.3711558878,-7.9047167203,,,,,,
"NB93_U",5469,37.3892,-7.90371,,,,,,
"NB94_A",26711,37.4078130184,-7.9719758783,,,,,,
"NB94_K",26699,37.407411462,-7.9267865098,,,,,,
"NB94_M",5476,37.4434,-7.92583,,,,,,
"NB94_Q",26704,37.4072042079,-7.9041921665,,,,,,
"NB94_R",5477,37.4252,-7.90339,,,,,,
"NB94_T",5478,37.4613,-7.90307,,,,,,
"NB97_B",5512,37.6959,-7.96899,,,,,,
"NB97_C",5513,37.7139,-7.96884,,,,,,
"NB97_G",5517,37.6958,-7.94631,,,,,,
"NB97_L",5522,37.6957,-7.92363,,,,,,
"NB97_P",5525,37.7497,-7.92316,,,,,,
"NB97_S",5528,37.7135,-7.90079,,,,,,
"NB97_T",5529,37.7316,-7.90063,,,,,,
"NB97_W",5532,37.6954,-7.87828,,,,,,
"NB97_X",5533,37.7134,-7.87811,,,,,,
"NB97_Z",5535,37.7495,-7.87777,,,,,,
"NB98_D",5539,37.822,-7.96796,,,,,,
"NB99_A",5561,37.8602,-7.96888,,,,,,
"NB99_C",5563,37.8962,-7.96819,,,,,,
"NB99_I",5569,37.914,-7.9451,,,,,,
"NB99_L",5572,37.8776,-7.92307,,,,,,
"NB99_P",5575,37.9317,-7.922,,,,,,
"NB99_R",5577,37.8774,-7.90034,,,,,,
"NB99_X",5583,37.8951,-7.87724,,,,,,
"NC06_H",5593,38.5282,-8.96609,,,,,,
"NC06_K",5596,38.4922,-8.94299,,,,,,
"NC06_P",5600,38.5643,-8.94332,,,,,,
"NC06_R",5602,38.5103,-8.92014,,,,,,
"NC06_W",5607,38.5104,-8.89721,,,,,,
"NC06_X",5608,38.5284,-8.89728,,,,,,
"NC06_Z",5610,38.5644,-8.89743,,,,,,
"NC07",672,38.6216,-8.94389,,,,,,
"NC08_A",5636,38.674,-8.98732,,,,,,
"NC08_E",5640,38.746,-8.98761,,,,,,
"NC08_G",5642,38.692,-8.96441,,,,,,
"NC08_I",5644,38.7281,-8.96454,,,,,,
"NC08_M",5648,38.7101,-8.94148,,,,,,
"NC08_T",5654,38.7282,-8.91854,,,,,,
"NC08_U",5655,38.7462,-8.9186,,,,,,
"NC08_X",5658,38.7102,-8.8955,,,,,,
"NC08_Y",5659,38.7282,-8.89555,,,,,,
"NC09",714,38.8018,-8.94375,,,,,,
"NC09_J",5670,38.8362,-8.96495,,,,,,
"NC09_K",5671,38.7642,-8.94167,,,,,,
"NC09_R",5677,38.7822,-8.91871,,,,,,
"NC09_T",5679,38.8182,-8.91882,,,,,,
"NC09_V",5681,38.7642,-8.89565,,,,,,
"NC09_Z",5685,38.8363,-8.89585,,,,,,
"NC11_T",5729,38.0962,-8.80439,,,,,,
"NC11_X",5733,38.0782,-8.78155,,,,,,
"NC11_Y",5734,38.0962,-8.78159,,,,,,
"NC12_V",26971,38.1332098876,-8.7832450672,,,,,,
"NC14",617,38.3511,-8.82966,,,,,,
"NC15",636,38.4412,-8.82944,,,,,,
"NC15_E",5765,38.4744,-8.87415,,,,,,
"NC15_H",5768,38.4384,-8.85111,,,,,,
"NC15_I",5769,38.4564,-8.85117,,,,,,
"NC15_L",5772,38.4204,-8.82815,,,,,,
"NC15_M",5773,38.4385,-8.82821,,,,,,
"NC15_S",5778,38.4385,-8.8053,,,,,,
"NC15_V",5781,38.4025,-8.78231,,,,,,
"NC16_G",5792,38.5105,-8.85135,,,,,,
"NC16_S",5803,38.5286,-8.80554,,,,,,
"NC16_Y",5809,38.5466,-8.78265,,,,,,
"NC19",715,38.8017,-8.82859,,,,,,
"NC19_D",5864,38.8183,-8.87277,,,,,,
"NC19_H",5868,38.8003,-8.8497,,,,,,
"NC19_J",5870,38.8364,-8.84978,,,,,,
"NC19_L",5872,38.7824,-8.82665,,,,,,
"NC19_N",5874,38.8184,-8.82671,,,,,,
"NC19_P",5875,38.8364,-8.82675,,,,,,
"NC19_S",5878,38.8004,-8.80366,,,,,,
"NC19_T",5879,38.8184,-8.80369,,,,,,
"NC19_U",5880,38.8364,-8.80371,,,,,,
"NC20_H",5893,37.9882,-8.73581,,,,,,
"NC20_K",5896,37.9522,-8.713,,,,,,
"NC20_P",5900,38.0242,-8.7131,,,,,,
"NC20_R",5902,37.9702,-8.69026,,,,,,
"NC20_T",5904,38.0062,-8.6903,,,,,,
"NC20_X",5908,37.9882,-8.66752,,,,,,
"NC22_A",5936,38.1323,-8.75887,,,,,,
"NC24",618,38.3509,-8.71521,,,,,,
"NC25",637,38.441,-8.71486,,,,,,
"NC25_A",6011,38.4025,-8.75941,,,,,,
"NC26_D",6039,38.5467,-8.75971,,,,,,
"NC26_J",6045,38.5647,-8.7368,,,,,,
"NC27",674,38.6212,-8.71415,,,,,,
"NC27_D",6064,38.6367,-8.7599,,,,,,
"NC27_H",6068,38.6188,-8.7369,,,,,,
"NC27_I",6069,38.6368,-8.73693,,,,,,
"NC27_N",6074,38.6368,-8.71396,,,,,,
"NC27_R",6077,38.6008,-8.69095,,,,,,
"NC27_U",6080,38.6548,-8.69101,,,,,,
"NC27_V",6081,38.5828,-8.66798,,,,,,
"NC28_C",6088,38.7104,-8.75754,,,,,,
"NC28_I",6094,38.7284,-8.73455,,,,,,
"NC28_R",6102,38.6924,-8.68856,,,,,,
"NC28_T",6104,38.7284,-8.68855,,,,,,
"NC28_V",6106,38.6743,-8.66558,,,,,,
"NC28_Z",6110,38.7464,-8.66555,,,,,,
"NC30_B",6137,37.9702,-8.64474,,,,,,
"NC30_E",6140,38.0243,-8.64476,,,,,,
"NC30_K",6146,37.9522,-8.59922,,,,,,
"NC30_P",6150,38.0243,-8.59921,,,,,,
"NC30_V",6156,37.9522,-8.55371,,,,,,
"NC30_Y",6159,38.0062,-8.55367,,,,,,
"NC33",601,38.2604,-8.60126,,,,,,
"NC33_C",6213,38.2585,-8.64487,,,,,,
"NC33_I",6219,38.2765,-8.62202,,,,,,
"NC33_K",6221,38.2225,-8.59917,,,,,,
"NC33_R",6227,38.2405,-8.57632,,,,,,
"NC33_V",6231,38.2224,-8.55349,,,,,,
"NC33_X",6233,38.2585,-8.55346,,,,,,
"NC34",619,38.3505,-8.60077,,,,,,
"NC35",638,38.4407,-8.60027,,,,,,
"NC37",675,38.6209,-8.59928,,,,,,
"NC38_B",6337,38.6923,-8.64258,,,,,,
"NC38_F",6341,38.6743,-8.61961,,,,,,
"NC38_H",6343,38.7103,-8.61957,,,,,,
"NC38_J",6345,38.7464,-8.61954,,,,,,
"NC38_L",6347,38.6923,-8.59661,,,,,,
"NC38_N",6349,38.7283,-8.59656,,,,,,
"NC38_P",6350,38.7464,-8.59653,,,,,,
"NC38_Q",6351,38.6743,-8.57365,,,,,,
"NC39",717,38.8011,-8.59827,,,,,,
"NC39_A",6361,38.7644,-8.64253,,,,,,
"NC39_G",6367,38.7824,-8.6195,,,,,,
"NC39_J",6370,38.8365,-8.61944,,,,,,
"NC39_R",6377,38.7824,-8.57347,,,,,,
"NC39_T",6379,38.8184,-8.5734,,,,,,
"NC39_Z",6385,38.8364,-8.55034,,,,,,
"NC40_B",6387,37.9702,-8.53094,,,,,,
"NC40_D",6389,38.0062,-8.5309,,,,,,
"NC40_J",6395,38.0242,-8.5081,,,,,,
"NC40_N",6399,38.0062,-8.48535,,,,,,
"NC40_S",6403,37.9881,-8.46262,,,,,,
"NC40_Y",6409,38.0061,-8.43981,,,,,,
"NC41_D",6414,38.0963,-8.53079,,,,,,
"NC41_F",6416,38.0422,-8.50807,,,,,,
"NC41_H",6418,38.0783,-8.50802,,,,,,
"NC41_N",6424,38.0963,-8.48519,,,,,,
"NC41_R",6427,38.0602,-8.46247,,,,,,
"NC41_S",6428,38.0782,-8.46243,,,,,,
"NC41_V",6431,38.0422,-8.43972,,,,,,
"NC42_G",6442,38.1503,-8.50792,,,,,,
"NC42_K",6446,38.1323,-8.48513,,,,,,
"NC43_B",6462,38.2405,-8.53063,,,,,,
"NC43_D",6464,38.2765,-8.53059,,,,,,
"NC43_F",6466,38.2224,-8.50781,,,,,,
"NC43_J",6470,38.2945,-8.50771,,,,,,
"NC43_K",6471,38.2224,-8.48497,,,,,,
"NC43_N",6474,38.2764,-8.48488,,,,,,
"NC43_P",6475,38.2945,-8.48485,,,,,,
"NC43_S",6478,38.2584,-8.46206,,,,,,
"NC43_T",6479,38.2764,-8.46202,,,,,,
"NC43_U",6480,38.2944,-8.46199,,,,,,
"NC43_V",6481,38.2223,-8.43929,,,,,,
"NC43_Y",6484,38.2764,-8.43917,,,,,,
"NC44",620,38.3501,-8.48633,,,,,,
"NC45",639,38.4402,-8.48569,,,,,,
"NC48_E",6590,38.7463,-8.52752,,,,,,
"NC48_I",6594,38.7282,-8.50456,,,,,,
"NC48_L",6597,38.6922,-8.48167,,,,,,
"NC48_V",6606,38.674,-8.43576,,,,,,
"NC48_X",6608,38.7101,-8.43562,,,,,,
"NC48_Y",6609,38.7281,-8.43556,,,,,,
"NC48_Z",6610,38.7461,-8.43549,,,,,,
"NC51_A",6661,38.0421,-8.41694,,,,,,
"NC51_C",6663,38.0782,-8.41684,,,,,,
"NC51_J",6670,38.1142,-8.39394,,,,,,
"NC51_N",6674,38.0961,-8.37119,,,,,,
"NC51_U",6680,38.1141,-8.34833,,,,,,
"NC51_X",6683,38.078,-8.32566,,,,,,
"NC53_E",6715,38.2944,-8.41626,,,,,,
"NC53_I",6719,38.2763,-8.39345,,,,,,
"NC53_M",6723,38.2582,-8.37066,,,,,,
"NC53_R",6727,38.2402,-8.34787,,,,,,
"NC53_T",6729,38.2762,-8.34774,,,,,,
"NC53_X",6733,38.2581,-8.32496,,,,,,
"NC55",640,38.4397,-8.37111,,,,,,
"NC55_A",6761,38.4025,-8.41597,,,,,,
"NC55_G",6767,38.4204,-8.39302,,,,,,
"NC55_I",6769,38.4565,-8.39292,,,,,,
"NC55_P",6775,38.4745,-8.36994,,,,,,
"NC55_S",6778,38.4384,-8.34716,,,,,,
"NC55_T",6779,38.4564,-8.34709,,,,,,
"NC55_W",6782,38.4203,-8.32432,,,,,,
"NC56_E",6790,38.5646,-8.41554,,,,,,
"NC56_G",6792,38.5105,-8.39275,,,,,,
"NC56_K",6796,38.4925,-8.36988,,,,,,
"NC56_P",6800,38.5645,-8.36965,,,,,,
"NC56_Q",6801,38.4924,-8.34696,,,,,,
"NC56_S",6803,38.5285,-8.34683,,,,,,
"NC56_W",6807,38.5104,-8.32396,,,,,,
"NC56_Z",6810,38.5644,-8.32375,,,,,,
"NC57",677,38.6199,-8.36954,,,,,,
"NC57_C",6813,38.6187,-8.4154,,,,,,
"NC57_E",6815,38.6547,-8.4153,,,,,,
"NC57_P",6825,38.6546,-8.36935,,,,,,
"NC57_R",6827,38.6005,-8.34657,,,,,,
"NC57_X",6833,38.6185,-8.32354,,,,,,
"NC57_Z",6835,38.6545,-8.32339,,,,,,
"NC58_U",6855,38.7459,-8.34347,,,,,,
"NC58_W",6857,38.6917,-8.32075,,,,,,
"NC59_B",6862,38.7821,-8.41235,,,,,,
"NC59_F",6866,38.764,-8.38941,,,,,,
"NC59_I",6869,38.8181,-8.38917,,,,,,
"NC59_R",6877,38.7819,-8.3433,,,,,,
"NC59_V",6881,38.7638,-8.32037,,,,,,
"NC59_W",6882,38.7818,-8.32028,,,,,,
"NC59_X",6883,38.7998,-8.32018,,,,,,
"NC60_E",6890,38.0239,-8.3031,,,,,,
"NC60_G",6892,37.9697,-8.28056,,,,,,
"NC60_M",6898,37.9877,-8.25772,,,,,,
"NC60_R",6902,37.9696,-8.23504,,,,,,
"NC60_T",6904,38.0056,-8.23486,,,,,,
"NC60_X",6908,37.9875,-8.21218,,,,,,
"NC62_C",6938,38.168,-8.30249,,,,,,
"NC62_G",6942,38.1499,-8.27975,,,,,,
"NC62_K",6946,38.1318,-8.25702,,,,,,
"NC62_R",6952,38.1498,-8.23411,,,,,,
"NC63",604,38.2588,-8.25838,,,,,,
"NC63_P",6975,38.294,-8.25623,,,,,,
"NC64_C",6988,38.3482,-8.30172,,,,,,
"NC64_D",6989,38.3662,-8.30165,,,,,,
"NC64_H",6993,38.3481,-8.27884,,,,,,
"NC64_L",6997,38.33,-8.25605,,,,,,
"NC64_M",6998,38.348,-8.25596,,,,,,
"NC64_Q",7001,38.3119,-8.23327,,,,,,
"NC64_R",7002,38.33,-8.23318,,,,,,
"NC64_U",7005,38.384,-8.2329,,,,,,
"NC64_X",7008,38.3479,-8.21021,,,,,,
"NC65",641,38.439,-8.25654,,,,,,
"NC65_N",7024,38.4561,-8.25544,,,,,,
"NC66_A",7036,38.4923,-8.30111,,,,,,
"NC66_B",7037,38.5103,-8.30103,,,,,,
"NC66_C",7038,38.5283,-8.30096,,,,,,
"NC66_D",7039,38.5464,-8.30088,,,,,,
"NC66_E",7040,38.5644,-8.3008,,,,,,
"NC66_G",7042,38.5103,-8.2781,,,,,,
"NC66_H",7043,38.5283,-8.27802,,,,,,
"NC66_J",7045,38.5643,-8.27786,,,,,,
"NC66_L",7047,38.5102,-8.25517,,,,,,
"NC66_M",7048,38.5282,-8.25508,,,,,,
"NC66_N",7049,38.5462,-8.255,,,,,,
"NC66_Y",7059,38.5461,-8.20911,,,,,,
"NC67",678,38.6192,-8.25468,,,,,,
"NC67_T",7079,38.6362,-8.23158,,,,,,
"NC68_B",7087,38.6917,-8.29776,,,,,,
"NC68_D",7089,38.7277,-8.29756,,,,,,
"NC68_H",7093,38.7096,-8.27467,,,,,,
"NC68_J",7095,38.7456,-8.27446,,,,,,
"NC68_L",7097,38.6915,-8.25179,,,,,,
"NC68_Q",7101,38.6734,-8.22892,,,,,,
"NC68_W",7107,38.6913,-8.20581,,,,,,
"NC69_K",7121,38.7636,-8.25134,,,,,,
"NC71_B",7162,38.0595,-8.189,,,,,,
"NC71_D",7164,38.0956,-8.18879,,,,,,
"NC71_F",7166,38.0414,-8.16632,,,,,,
"NC71_H",7168,38.0775,-8.1661,,,,,,
"NC71_L",7172,38.0594,-8.14342,,,,,,
"NC71_N",7174,38.0954,-8.14319,,,,,,
"NC73_E",7215,38.2938,-8.18764,,,,,,
"NC73_I",7219,38.2757,-8.16489,,,,,,
"NC73_P",7225,38.2936,-8.14192,,,,,,
"NC73_Q",7226,38.2214,-8.11954,,,,,,
"NC73_T",7229,38.2755,-8.11918,,,,,,
"NC73_W",7232,38.2393,-8.09658,,,,,,
"NC74",623,38.3481,-8.14303,,,,,,
"NC74_E",7240,38.3839,-8.18712,,,,,,
"NC75_C",7263,38.4379,-8.1868,,,,,,
"NC75_J",7270,38.4739,-8.16367,,,,,,
"NC75_N",7274,38.4557,-8.14087,,,,,,
"NC75_Q",7276,38.4016,-8.11833,,,,,,
"NC75_W",7282,38.4195,-8.0953,,,,,,
"NC75_Y",7284,38.4556,-8.09505,,,,,,
"NC77",679,38.6184,-8.13982,,,,,,
"NC79",721,38.7986,-8.13766,,,,,,
"NC79_E",7365,38.835,-8.18229,,,,,,
"NC79_F",7366,38.7627,-8.16046,,,,,,
"NC79_L",7372,38.7805,-8.13714,,,,,,
"NC79_Q",7376,38.7622,-8.11444,,,,,,
"NC79_S",7378,38.7982,-8.11382,,,,,,
"NC79_X",7383,38.798,-8.0908,,,,,,
"NC79_Y",7384,38.816,-8.09048,,,,,,
"NC80_A",7386,37.951,-8.07585,,,,,,
"NC80_G",7392,37.9689,-8.05296,,,,,,
"NC80_K",7396,37.9507,-8.03034,,,,,,
"NC80_M",7398,37.9868,-8.03005,,,,,,
"NC80_P",7400,38.0228,-8.02977,,,,,,
"NC80_R",7402,37.9686,-8.00743,,,,,,
"NC82_C",7438,38.1672,-8.07426,,,,,,
"NC82_E",7440,38.2032,-8.074,,,,,,
"NC82_G",7442,38.149,-8.05158,,,,,,
"NC82_M",7448,38.167,-8.02862,,,,,,
"NC82_T",7454,38.1849,-8.00565,,,,,,
"NC82_Z",7460,38.2028,-7.98266,,,,,,
"NC85_A",7511,38.4014,-8.07253,,,,,,
"NC85_C",7513,38.4374,-8.07227,,,,,,
"NC85_I",7519,38.4553,-8.04922,,,,,,
"NC85_M",7523,38.4372,-8.02645,,,,,,
"NC85_P",7525,38.4732,-8.02616,,,,,,
"NC85_R",7527,38.4191,-8.0037,,,,,,
"NC85_T",7529,38.4551,-8.0034,,,,,,
"NC86",661,38.5274,-8.02619,,,,,,
"NC86_E",7540,38.5636,-8.07133,,,,,,
"NC86_G",7542,38.5094,-8.0488,,,,,,
"NC86_L",7547,38.5093,-8.02587,,,,,,
"NC86_M",7548,38.5273,-8.02573,,,,,,
"NC86_P",7550,38.5633,-8.02544,,,,,,
"NC86_T",7554,38.5452,-8.00264,,,,,,
"NC86_X",7558,38.5271,-7.97986,,,,,,
"NC86_Z",7560,38.5631,-7.97954,,,,,,
"NC87",680,38.6175,-8.02497,,,,,,
"NC87_U",7580,38.6533,-8.00173,,,,,,
"NC88",701,38.7076,-8.02375,,,,,,
"NC88_B",7587,38.6896,-8.06971,,,,,,
"NC88_D",7589,38.7257,-8.06906,,,,,,
"NC88_J",7595,38.7434,-8.04574,,,,,,
"NC88_N",7599,38.7252,-8.02307,,,,,,
"NC88_R",7602,38.6889,-8.00075,,,,,,
"NC88_T",7604,38.7249,-8.00007,,,,,,
"NC88_U",7605,38.7429,-7.99974,,,,,,
"NC88_X",7608,38.7066,-7.97742,,,,,,
"NC88_Z",7610,38.7426,-7.97673,,,,,,
"NC91_D",7664,38.0944,-7.96437,,,,,,
"NC91_F",7666,38.0401,-7.94263,,,,,,
"NC91_H",7668,38.0761,-7.94193,,,,,,
"NC91_J",7670,38.1121,-7.94122,,,,,,
"NC91_P",7675,38.1118,-7.91842,,,,,,
"NC91_U",7680,38.1116,-7.89561,,,,,,
"NC91_W",7682,38.0572,-7.87392,,,,,,
"NC91_Y",7684,38.0933,-7.87318,,,,,,
"NC93_E",7715,38.2926,-7.96053,,,,,,
"NC93_G",7717,38.2382,-7.93874,,,,,,
"NC93_I",7719,38.2743,-7.93803,,,,,,
"NC93_M",7723,38.256,-7.91554,,,,,,
"NC93_R",7727,38.2377,-7.89305,,,,,,
"NC93_T",7729,38.2737,-7.89232,,,,,,
"NC96",662,38.5264,-7.91148,,,,,,
"NC96_B",7787,38.5087,-7.95632,,,,,,
"NC96_D",7789,38.5448,-7.95561,,,,,,
"NC96_G",7792,38.5085,-7.93339,,,,,,
"NC96_P",7800,38.5622,-7.90937,,,,,,
"NC96_T",7804,38.5439,-7.8868,,,,,,
"NC96_U",7805,38.5619,-7.88643,,,,,,
"NC96_W",7807,38.5076,-7.86461,,,,,,
"NC97",681,38.6165,-7.91012,,,,,,
"NC97_Q",7826,38.58,-7.88606,,,,,,
"NC99",723,38.7967,-7.90738,,,,,,
"NC99_A",7861,38.7604,-7.95338,,,,,,
"NC99_H",7868,38.7961,-7.92966,,,,,,
"NC99_N",7874,38.8139,-7.90628,,,,,,
"NC99_R",7877,38.7776,-7.88399,,,,,,
"NC99_V",7881,38.7593,-7.86135,,,,,,
"NC99_X",7883,38.7953,-7.8606,,,,,,
"ND01_D",7914,38.9982,-8.98865,,,,,,
"ND01_F",7916,38.9443,-8.96536,,,,,,
"ND01_H",7918,38.9803,-8.9655,,,,,,
"ND01_L",7922,38.9623,-8.94235,,,,,,
"ND01_R",7927,38.9624,-8.91928,,,,,,
"ND01_W",7932,38.9624,-8.8962,,,,,,
"ND01_Z",7935,39.0165,-8.89636,,,,,,
"ND02_E",7940,39.1063,-8.9891,,,,,,
"ND03",802,39.1623,-8.94346,,,,,,
"ND04_A",7986,39.2144,-8.98956,,,,,,
"ND04_I",7994,39.2685,-8.96661,,,,,,
"ND04_T",8004,39.2686,-8.92027,,,,,,
"ND04_V",8006,39.2146,-8.89693,,,,,,
"ND04_X",8008,39.2506,-8.89704,,,,,,
"ND04_Z",8010,39.2867,-8.89715,,,,,,
"ND06_F",8041,39.3945,-8.96414,,,,,,
"ND06_N",8049,39.4486,-8.94108,,,,,,
"ND06_Q",8051,39.3945,-8.91771,,,,,,
"ND06_S",8053,39.4306,-8.9178,,,,,,
"ND06_W",8057,39.4126,-8.89453,,,,,,
"ND06_Z",8060,39.4666,-8.89465,,,,,,
"ND07_L",8072,39.5026,-8.94123,,,,,,
"ND08_E",8090,39.6466,-8.98825,,,,,,
"ND09_A",8111,39.6646,-8.98831,,,,,,
"ND09_D",8114,39.7186,-8.9885,,,,,,
"ND09_H",8118,39.7007,-8.96512,,,,,,
"ND09_J",8120,39.7367,-8.96524,,,,,,
"ND09_K",8121,39.6647,-8.9417,,,,,,
"ND09_W",8132,39.6828,-8.89513,,,,,,
"ND10",737,38.8918,-8.82837,,,,,,
"ND10_B",8137,38.8724,-8.8729,,,,,,
"ND10_C",8138,38.8904,-8.87295,,,,,,
"ND10_F",8141,38.8544,-8.84982,,,,,,
"ND10_G",8142,38.8724,-8.84986,,,,,,
"ND10_I",8144,38.9084,-8.84994,,,,,,
"ND10_M",8148,38.8904,-8.82685,,,,,,
"ND10_R",8152,38.8725,-8.80377,,,,,,
"ND10_V",8156,38.8545,-8.7807,,,,,,
"ND11_D",8164,38.9985,-8.87322,,,,,,
"ND11_I",8169,38.9985,-8.85013,,,,,,
"ND11_K",8171,38.9445,-8.82695,,,,,,
"ND11_N",8174,38.9985,-8.82705,,,,,,
"ND11_R",8177,38.9625,-8.80391,,,,,,
"ND11_T",8179,38.9986,-8.80396,,,,,,
"ND11_V",8181,38.9445,-8.78081,,,,,,
"ND11_Y",8184,38.9986,-8.78088,,,,,,
"ND12_C",8188,39.0705,-8.87341,,,,,,
"ND12_G",8192,39.0526,-8.85026,,,,,,
"ND12_J",8195,39.1066,-8.85038,,,,,,
"ND12_K",8196,39.0346,-8.82712,,,,,,
"ND12_S",8203,39.0706,-8.80408,,,,,,
"ND12_W",8207,39.0526,-8.78094,,,,,,
"ND13_E",8215,39.1966,-8.87373,,,,,,
"ND14_X",8258,39.2508,-8.7812,,,,,,
"ND15_E",8265,39.3766,-8.87125,,,,,,
"ND15_K",8271,39.3046,-8.82474,,,,,,
"ND15_R",8277,39.3226,-8.80157,,,,,,
"ND15_T",8279,39.3586,-8.8016,,,,,,
"ND15_V",8281,39.3046,-8.77837,,,,,,
"ND15_X",8283,39.3406,-8.77839,,,,,,
"ND19_E",8365,39.7369,-8.87192,,,,,,
"ND19_H",8368,39.7009,-8.84853,,,,,,
"ND19_J",8370,39.7369,-8.84859,,,,,,
"ND19_Q",8376,39.6649,-8.80186,,,,,,
"ND19_S",8378,39.7009,-8.80189,,,,,,
"ND19_U",8380,39.7369,-8.80193,,,,,,
"ND19_W",8382,39.6829,-8.77857,,,,,,
"ND22",782,39.0718,-8.71234,,,,,,
"ND22_B",2148,39.052293,-8.757515,,,,,,
"ND22_C",2149,39.070316,-8.757453,,,,,,
"ND22_F",8438,39.0346,-8.73473,,,,,,
"ND22_I",8441,39.0887,-8.73476,,,,,,
"ND22_L",8444,39.0527,-8.71163,,,,,,
"ND22_U",8452,39.1067,-8.68853,,,,,,
"ND22_Y",8456,39.0887,-8.66541,,,,,,
"ND24",826,39.252,-8.7116,,,,,,
"ND24_H",8490,39.2508,-8.73486,,,,,,
"ND24_X",8505,39.2508,-8.66535,,,,,,
"ND25_I",8516,39.3587,-8.73199,,,,,,
"ND25_K",8518,39.3046,-8.70881,,,,,,
"ND25_M",8520,39.3406,-8.70879,,,,,,
"ND25_T",8526,39.3586,-8.68558,,,,,,
"ND25_X",8530,39.3406,-8.66239,,,,,,
"ND25_Z",8532,39.3766,-8.66235,,,,,,
"ND26_E",8537,39.4667,-8.75521,,,,,,
"ND26_G",8539,39.4127,-8.73198,,,,,,
"ND26_N",8546,39.4487,-8.70874,,,,,,
"ND26_R",8549,39.4127,-8.68553,,,,,,
"ND26_U",8552,39.4667,-8.68549,,,,,,
"ND26_X",8555,39.4307,-8.66229,,,,,,
"ND27_R",8574,39.5027,-8.68546,,,,,,
"ND28_B",8584,39.5928,-8.75523,,,,,,
"ND28_D",8586,39.6289,-8.75524,,,,,,
"ND28_F",8588,39.5748,-8.73195,,,,,,
"ND28_R",8599,39.5928,-8.68539,,,,,,
"ND28_T",8601,39.6288,-8.68536,,,,,,
"ND28_Z",8607,39.6468,-8.66204,,,,,,
"ND30",739,38.8912,-8.59776,,,,,,
"ND31_A",8658,38.9446,-8.6424,,,,,,
"ND31_E",8662,39.0166,-8.64235,,,,,,
"ND31_H",8665,38.9806,-8.61929,,,,,,
"ND31_K",8668,38.9445,-8.59626,,,,,,
"ND31_S",8675,38.9805,-8.57313,,,,,,
"ND31_W",8679,38.9625,-8.55008,,,,,,
"ND32_U",8702,39.1066,-8.57292,,,,,,
"ND34_A",8733,39.2148,-8.64221,,,,,,
"ND34_B",8734,39.2328,-8.64219,,,,,,
"ND34_C",8735,39.2508,-8.64218,,,,,,
"ND34_E",8737,39.2868,-8.64216,,,,,,
"ND34_F",8738,39.2148,-8.61905,,,,,,
"ND34_L",8744,39.2328,-8.59587,,,,,,
"ND34_M",8745,39.2508,-8.59584,,,,,,
"ND34_N",8746,39.2688,-8.59582,,,,,,
"ND34_W",8754,39.2327,-8.54954,,,,,,
"ND37_C",8810,39.5207,-8.63893,,,,,,
"ND37_E",8812,39.5568,-8.63887,,,,,,
"ND37_F",8813,39.4847,-8.61573,,,,,,
"ND37_H",8815,39.5207,-8.61567,,,,,,
"ND37_M",8820,39.5207,-8.59241,,,,,,
"ND37_S",8825,39.5206,-8.56915,,,,,,
"ND37_U",8827,39.5567,-8.56906,,,,,,
"ND37_V",8828,39.4846,-8.54599,,,,,,
"ND39_A",8858,39.6648,-8.63872,,,,,,
"ND39_D",8861,39.7189,-8.63864,,,,,,
"ND39_G",8864,39.6828,-8.61538,,,,,,
"ND39_P",8872,39.7368,-8.59195,,,,,,
"ND39_T",8876,39.7188,-8.56866,,,,,,
"ND39_V",8878,39.6647,-8.54549,,,,,,
"ND40_D",8886,38.9084,-8.52713,,,,,,
"ND40_F",8888,38.8543,-8.50422,,,,,,
"ND40_J",8892,38.9264,-8.50403,,,,,,
"ND40_M",8895,38.8903,-8.48107,,,,,,
"ND40_N",8896,38.9083,-8.48102,,,,,,
"ND40_P",8897,38.9264,-8.48097,,,,,,
"ND40_Y",8906,38.9083,-8.43491,,,,,,
"ND41",762,38.9809,-8.4818,,,,,,
"ND46_A",9033,39.3945,-8.52303,,,,,,
"ND46_B",9034,39.4125,-8.52297,,,,,,
"ND46_D",9036,39.4485,-8.52286,,,,,,
"ND46_K",9043,39.3944,-8.4766,,,,,,
"ND46_L",9044,39.4124,-8.47653,,,,,,
"ND46_M",9045,39.4304,-8.47646,,,,,,
"ND46_T",9051,39.4484,-8.45316,,,,,,
"ND46_V",9053,39.3943,-8.43016,,,,,,
"ND48_I",9091,39.6286,-8.499,,,,,,
"ND50_B",9134,38.8722,-8.41199,,,,,,
"ND51_C",9160,38.9803,-8.41156,,,,,,
"ND51_E",9162,39.0163,-8.41142,,,,,,
"ND51_F",9163,38.9442,-8.38864,,,,,,
"ND51_I",9166,38.9982,-8.3884,,,,,,
"ND51_S",9175,38.9801,-8.34232,,,,,,
"ND51_U",9177,39.0161,-8.34214,,,,,,
"ND53_D",9211,39.1784,-8.41078,,,,,,
"ND53_H",9215,39.1604,-8.38771,,,,,,
"ND53_I",9216,39.1784,-8.38763,,,,,,
"ND53_L",9219,39.1423,-8.36465,,,,,,
"ND53_N",9221,39.1783,-8.36449,,,,,,
"ND53_U",9227,39.1963,-8.34125,,,,,,
"ND53_Y",9231,39.1782,-8.31819,,,,,,
"ND57",885,39.5209,-8.36147,,,,,,
"ND57_D",9311,39.5383,-8.40625,,,,,,
"ND57_G",9314,39.5022,-8.38317,,,,,,
"ND57_M",9320,39.5201,-8.35982,,,,,,
"ND57_P",9322,39.5562,-8.35963,,,,,,
"ND57_Q",9323,39.484,-8.33677,,,,,,
"ND57_Y",9331,39.538,-8.3132,,,,,,
"ND58",901,39.611,-8.36064,,,,,,
"ND58_R",9349,39.5921,-8.33615,,,,,,
"ND59_J",9367,39.7364,-8.38197,,,,,,
"ND59_S",9375,39.7002,-8.33552,,,,,,
"ND59_U",9377,39.7362,-8.33531,,,,,,
"ND61",764,38.9796,-8.25092,,,,,,
"ND61_B",9409,38.9619,-8.29626,,,,,,
"ND61_D",9411,38.9979,-8.29606,,,,,,
"ND61_J",9417,39.0159,-8.27286,,,,,,
"ND61_M",9420,38.9798,-8.25,,,,,,
"ND61_W",9429,38.9616,-8.20396,,,,,,
"ND61_Y",9431,38.9976,-8.20371,,,,,,
"ND62_L",9444,39.0518,-8.24955,,,,,,
"ND62_P",9447,39.1059,-8.24921,,,,,,
"ND62_Q",9448,39.0337,-8.22656,,,,,,
"ND62_T",9451,39.0878,-8.22621,,,,,,
"ND62_W",9454,39.0516,-8.20334,,,,,,
"ND62_Z",9457,39.1057,-8.20297,,,,,,
"ND64",830,39.25,-8.24805,,,,,,
"ND64_C",9485,39.2501,-8.29464,,,,,,
"ND64_F",9488,39.214,-8.27169,,,,,,
"ND64_J",9492,39.2861,-8.27126,,,,,,
"ND64_Q",9498,39.2139,-8.22537,,,,,,
"ND64_X",9505,39.2498,-8.20197,,,,,,
"ND64_Z",9507,39.2858,-8.20172,,,,,,
"ND66",869,39.4302,-8.24611,,,,,,
"ND66_H",9540,39.4297,-8.2674,,,,,,
"ND66_L",9544,39.4116,-8.2443,,,,,,
"ND66_P",9547,39.4657,-8.24392,,,,,,
"ND66_Q",9548,39.3935,-8.22122,,,,,,
"ND66_S",9550,39.4295,-8.22095,,,,,,
"ND66_X",9555,39.4294,-8.19772,,,,,,
"ND66_Y",9556,39.4474,-8.19758,,,,,,
"ND66_Z",9557,39.4655,-8.19744,,,,,,
"ND69",918,39.7004,-8.24318,,,,,,
"ND70",743,38.8887,-8.13657,,,,,,
"ND70_B",9634,38.871,-8.1817,,,,,,
"ND70_F",9638,38.8527,-8.15896,,,,,,
"ND70_H",9640,38.8888,-8.15836,,,,,,
"ND70_L",9644,38.8705,-8.13562,,,,,,
"ND70_Q",9648,38.8523,-8.11289,,,,,,
"ND70_X",9655,38.8881,-8.08921,,,,,,
"ND70_Z",9657,38.9241,-8.08858,,,,,,
"ND71",765,38.9788,-8.13548,,,,,,
"ND71_B",9659,38.9611,-8.18023,,,,,,
"ND71_E",9662,39.0151,-8.17935,,,,,,
"ND71_I",9666,38.9969,-8.15656,,,,,,
"ND71_R",9674,38.9604,-8.11102,,,,,,
"ND71_T",9676,38.9964,-8.11039,,,,,,
"ND71_X",9680,38.9781,-8.08763,,,,,,
"ND73",809,39.1591,-8.13328,,,,,,
"ND73_B",9709,39.1412,-8.17728,,,,,,
"ND73_G",9714,39.141,-8.15415,,,,,,
"ND73_I",9716,39.177,-8.15355,,,,,,
"ND73_K",9718,39.1227,-8.13133,,,,,,
"ND73_M",9720,39.1587,-8.13071,,,,,,
"ND73_R",9724,39.1405,-8.10789,,,,,,
"ND73_X",9730,39.1583,-8.08444,,,,,,
"ND75_Z",9782,39.3748,-8.08209,,,,,,
"ND76_C",9785,39.4293,-8.17449,,,,,,
"ND77_Q",9823,39.483,-8.10431,,,,,,
"ND79_F",9863,39.6634,-8.14927,,,,,,
"ND79_L",9869,39.6813,-8.12581,,,,,,
"ND79_S",9875,39.6992,-8.10233,,,,,,
"ND80",744,38.8878,-8.02128,,,,,,
"ND80_E",9887,38.9238,-8.06552,,,,,,
"ND80_H",9890,38.8875,-8.04312,,,,,,
"ND80_K",9893,38.8513,-8.02074,,,,,,
"ND80_N",9896,38.9053,-8.01973,,,,,,
"ND80_U",9902,38.9231,-7.99634,,,,,,
"ND80_X",9905,38.8868,-7.97397,,,,,,
"ND81",766,38.9779,-8.02004,,,,,,
"ND81_A",9908,38.9418,-8.06519,,,,,,
"ND81_L",9919,38.9593,-8.01873,,,,,,
"ND81_N",9921,38.9954,-8.01806,,,,,,
"ND81_Q",9923,38.9411,-7.996,,,,,,
"ND81_S",9925,38.9771,-7.99531,,,,,,
"ND81_Z",9932,39.0129,-7.97154,,,,,,
"ND84",832,39.2482,-8.01629,,,,,,
"ND84_B",9984,39.2301,-8.06,,,,,,
"ND84_D",9986,39.2661,-8.05935,,,,,,
"ND84_F",9988,39.2118,-8.03717,,,,,,
"ND84_H",9990,39.2478,-8.03651,,,,,,
"ND84_N",9996,39.2656,-8.013,,,,,,
"ND84_S",10000,39.2473,-7.99017,,,,,,
"ND86_B",10034,39.4099,-8.05998,,,,,,
"ND86_F",10038,39.3917,-8.03705,,,,,,
"ND86_J",10042,39.4637,-8.0359,,,,,,
"ND86_N",10046,39.4455,-8.01295,,,,,,
"ND86_S",10050,39.4272,-7.99002,,,,,,
"ND86_U",10052,39.4633,-7.98942,,,,,,
"ND87_M",10070,39.5175,-8.01178,,,,,,
"ND90",745,38.8868,-7.906,,,,,,
"ND91",767,38.9769,-7.90462,,,,,,
"ND91_A",10158,38.9405,-7.94987,,,,,,
"ND91_D",10161,38.9946,-7.94881,,,,,,
"ND91_E",10162,39.0126,-7.94845,,,,,,
"ND91_G",10164,38.9583,-7.92644,,,,,,
"ND91_J",10167,39.0123,-7.92536,,,,,,
"ND91_N",10171,38.994,-7.90264,,,,,,
"ND91_P",10172,39.012,-7.90228,,,,,,
"ND91_R",10174,38.9577,-7.8803,,,,,,
"ND91_V",10178,38.9394,-7.8576,,,,,,
"ND91_X",10180,38.9754,-7.85685,,,,,,
"ND91_Z",10182,39.0114,-7.8561,,,,,,
"ND92",789,39.067,-7.90323,,,,,,
"ND92_F",10188,39.0303,-7.925,,,,,,
"ND92_I",10191,39.0844,-7.92392,,,,,,
"ND92_L",10194,39.048,-7.90154,,,,,,
"ND92_P",10197,39.1021,-7.90045,,,,,,
"ND92_T",10201,39.0838,-7.8777,,,,,,
"ND92_W",10204,39.0475,-7.85534,,,,,,
"ND95_E",10262,39.3727,-7.94451,,,,,,
"ND95_G",10264,39.3184,-7.92225,,,,,,
"ND95_K",10268,39.3002,-7.89938,,,,,,
"ND95_M",10270,39.3362,-7.89874,,,,,,
"ND95_P",10272,39.3722,-7.89809,,,,,,
"ND95_X",10280,39.3357,-7.85234,,,,,,
"ND97_A",10308,39.4808,-7.94264,,,,,,
"ND97_B",10309,39.4988,-7.94232,,,,,,
"ND97_E",10312,39.5528,-7.94139,,,,,,
"ND97_I",10316,39.5346,-7.91844,,,,,,
"ND97_K",10318,39.4803,-7.89615,,,,,,
"ND97_L",10319,39.4983,-7.89583,,,,,,
"ND97_R",10324,39.4981,-7.87258,,,,,,
"ND97_Y",10331,39.5338,-7.84865,,,,,,
"ND98_Z",10357,39.6419,-7.84663,,,,,,
"ND99_A",10358,39.6609,-7.93951,,,,,,
"ND99_C",10360,39.6969,-7.93888,,,,,,
"ND99_E",10362,39.733,-7.93825,,,,,,
"ND99_I",10366,39.7147,-7.91524,,,,,,
"ND99_L",10369,39.6784,-7.89257,,,,,,
"ND99_Q",10373,39.6602,-7.8696,,,,,,
"ND99_S",10375,39.6962,-7.86893,,,,,,
"ND99_Y",10381,39.7139,-7.84528,,,,,,
"NE00_A",10383,39.7547,-8.98863,,,,,,
"NE00_C",10385,39.7907,-8.98876,,,,,,
"NE00_J",10392,39.8268,-8.96553,,,,,,
"NE00_S",10400,39.7908,-8.91872,,,,,,
"NE00_W",10404,39.7728,-8.89533,,,,,,
"NE00_Y",10406,39.8089,-8.89541,,,,,,
"NE10_K",10468,39.7549,-8.82528,,,,,,
"NE11_B",10484,39.8629,-8.87216,,,,,,
"NE11_E",10487,39.917,-8.87227,,,,,,
"NE11_I",10491,39.899,-8.84885,,,,,,
"NE11_Q",10498,39.845,-8.80203,,,,,,
"NE11_U",10502,39.917,-8.80209,,,,,,
"NE11_Y",10506,39.899,-8.77869,,,,,,
"NE13_A",10533,40.0265,-8.87252,,,,,,
"NE13_D",10536,40.0806,-8.87229,,,,,,
"NE13_H",10540,40.0625,-8.84893,,,,,,
"NE13_M",10545,40.0624,-8.82549,,,,,,
"NE13_U",10552,40.0984,-8.80185,,,,,,
"NE13_W",10554,40.0443,-8.77871,,,,,,
"NE14_G",10564,40.1345,-8.84859,,,,,,
"NE14_L",10569,40.1345,-8.82512,,,,,,
"NE22_N",10746,39.9891,-8.7085,,,,,,
"NE22_Z",10757,40.0071,-8.66165,,,,,,
"NE24_W",10804,40.1339,-8.66086,,,,,,
"NE28_E",10887,40.5485,-8.75222,,,,,,
"NE28_F",10888,40.4763,-8.72907,,,,,,
"NE28_H",10890,40.5124,-8.72884,,,,,,
"NE28_L",10894,40.4943,-8.70537,,,,,,
"NE28_Q",10898,40.4762,-8.6819,,,,,,
"NE28_R",10899,40.4942,-8.68178,,,,,,
"NE28_T",10901,40.5302,-8.68152,,,,,,
"NE28_U",10902,40.5482,-8.68139,,,,,,
"NE28_V",10903,40.4761,-8.65832,,,,,,
"NE28_Y",10906,40.5301,-8.65792,,,,,,
"NE31_L",10969,39.8629,-8.59168,,,,,,
"NE31_N",10971,39.8989,-8.5916,,,,,,
"NE31_Y",10981,39.8989,-8.54483,,,,,,
"NE33_A",11008,40.0257,-8.63824,,,,,,
"NE33_E",11012,40.0977,-8.63768,,,,,,
"NE33_G",11014,40.0436,-8.61466,,,,,,
"NE33_H",11015,40.0616,-8.61452,,,,,,
"NE33_I",11016,40.0796,-8.61437,,,,,,
"NE33_K",11018,40.0255,-8.59138,,,,,,
"NE33_W",11029,40.0432,-8.54436,,,,,,
"NE40_K",11193,39.7546,-8.47522,,,,,,
"NE40_R",11199,39.7726,-8.45181,,,,,,
"NE40_T",11201,39.8086,-8.45166,,,,,,
"NE42_F",11238,39.9348,-8.49794,,,,,,
"NE42_L",11244,39.9528,-8.47447,,,,,,
"NE42_N",11246,39.9888,-8.47433,,,,,,
"NE44_B",11284,40.1332,-8.52007,,,,,,
"NE44_D",11286,40.1692,-8.51973,,,,,,
"NE44_K",11293,40.1149,-8.47332,,,,,,
"NE44_V",11303,40.1146,-8.4264,,,,,,
"NE44_X",11305,40.1506,-8.42601,,,,,,
"NE44_Z",11307,40.1866,-8.42562,,,,,,
"NE45_A",11308,40.2052,-8.51938,,,,,,
"NE45_C",11310,40.2412,-8.51904,,,,,,
"NE45_F",11313,40.2051,-8.49589,,,,,,
"NE45_G",11314,40.2231,-8.49572,,,,,,
"NE45_H",11315,40.2411,-8.49554,,,,,,
"NE45_L",11319,40.2229,-8.47222,,,,,,
"NE45_M",11320,40.241,-8.47204,,,,,,
"NE45_P",11322,40.277,-8.47167,,,,,,
"NE45_Q",11323,40.2048,-8.44891,,,,,,
"NE45_R",11324,40.2228,-8.44872,,,,,,
"NE45_T",11326,40.2588,-8.44834,,,,,,
"NE45_V",11328,40.2046,-8.42542,,,,,,
"NE45_Z",11332,40.2767,-8.42464,,,,,,
"NE46_C",11335,40.3313,-8.51819,,,,,,
"NE46_G",11339,40.3131,-8.49483,,,,,,
"NE46_K",11343,40.295,-8.47149,,,,,,
"NE46_S",11350,40.3309,-8.44758,,,,,,
"NE46_U",11352,40.3669,-8.4472,,,,,,
"NE46_Y",11356,40.3487,-8.42385,,,,,,
"NE49_F",11413,40.5653,-8.49234,,,,,,
"NE50",936,39.7912,-8.35898,,,,,,
"NE51_B",11459,39.8625,-8.40469,,,,,,
"NE51_I",11466,39.8985,-8.38113,,,,,,
"NE51_M",11470,39.8804,-8.35784,,,,,,
"NE51_T",11476,39.8983,-8.33436,,,,,,
"NE51_X",11480,39.8802,-8.31108,,,,,,
"NE51_Z",11482,39.9163,-8.31086,,,,,,
"NE52",974,39.9714,-8.3573,,,,,,
"NE53",993,40.0615,-8.35645,,,,,,
"NE53_E",11512,40.0964,-8.40315,,,,,,
"NE53_I",11516,40.0783,-8.3799,,,,,,
"NE53_K",11518,40.0241,-8.35709,,,,,,
"NE53_P",11522,40.0961,-8.35624,,,,,,
"NE53_R",11524,40.0419,-8.33345,,,,,,
"NE53_T",11526,40.0779,-8.33301,,,,,,
"NE60",937,39.7905,-8.24219,,,,,,
"NE60_B",11684,39.7721,-8.28841,,,,,,
"NE60_H",11690,39.79,-8.26494,,,,,,
"NE60_Q",11698,39.7538,-8.21852,,,,,,
"NE61",956,39.8806,-8.2412,,,,,,
"NE62",975,39.9707,-8.24021,,,,,,
"NE63",994,40.0608,-8.23921,,,,,,
"NE63_K",11768,40.0232,-8.23996,,,,,,
"NE63_M",11770,40.0592,-8.23947,,,,,,
"NE63_Q",11773,40.023,-8.21653,,,,,,
"NE63_R",11774,40.041,-8.21628,,,,,,
"NE63_S",11775,40.059,-8.21603,,,,,,
"NE63_X",11780,40.0588,-8.19259,,,,,,
"NE64",1013,40.1509,-8.2382,,,,,,
"NE64_B",11784,40.1316,-8.28542,,,,,,
"NE64_D",11786,40.1676,-8.28495,,,,,,
"NE64_P",11797,40.1853,-8.23775,,,,,,
"NE64_Q",11798,40.113,-8.21527,,,,,,
"NE64_S",11800,40.1491,-8.21477,,,,,,
"NE64_W",11804,40.1309,-8.19156,,,,,,
"NE71_E",11962,39.9157,-8.17051,,,,,,
"NE71_I",11966,39.8975,-8.14727,,,,,,
"NE71_P",11972,39.9154,-8.12373,,,,,,
"NE71_R",11974,39.8613,-8.10084,,,,,,
"NE71_T",11976,39.8973,-8.1005,,,,,,
"NE71_Z",11982,39.9152,-8.07694,,,,,,
"NE73_D",12011,40.0766,-8.16888,,,,,,
"NE73_E",12012,40.0946,-8.16862,,,,,,
"NE73_I",12016,40.0764,-8.14544,,,,,,
"NE74_F",12038,40.1124,-8.1449,,,,,,
"NE75_C",12060,40.2387,-8.16651,,,,,,
"NE80_B",12184,39.7701,-8.05432,,,,,,
"NE80_E",12187,39.8242,-8.05347,,,,,,
"NE80_F",12188,39.7519,-8.03127,,,,,,
"NE80_H",12190,39.7879,-8.03069,,,,,,
"NE80_L",12194,39.7697,-8.00764,,,,,,
"NE80_P",12197,39.8237,-8.00675,,,,,,
"NE80_S",12200,39.7875,-7.984,,,,,,
"NE82_D",12236,39.9863,-8.0509,,,,,,
"NE82_J",12242,40.0041,-8.02719,,,,,,
"NE82_M",12245,39.9678,-8.00437,,,,,,
"NE82_R",12249,39.9496,-7.98126,,,,,,
"NE82_U",12252,40.0036,-7.98035,,,,,,
"NE82_X",12255,39.9673,-7.95755,,,,,,
"NE85_B",12309,40.2196,-8.0493,,,,,,
"NE85_P",12322,40.2732,-8.00139,,,,,,
"NE85_X",12330,40.2367,-7.955,,,,,,
"NE91_H",12465,39.8768,-7.91235,,,,,,
"NE91_J",12467,39.9128,-7.9117,,,,,,
"NE91_N",12471,39.8946,-7.88864,,,,,,
"NE91_Q",12473,39.8403,-7.86626,,,,,,
"NE91_S",12475,39.8763,-7.8656,,,,,,
"NE91_W",12479,39.858,-7.84256,,,,,,
"NE93_U",12527,40.0916,-7.86376,,,,,,
"NE99_U",12677,40.6319,-7.85335,,,,,,
"Nespereira, Gouveia",27444,40.510567,-7.602708,,,,,,
"NF18_X",26870,41.4127746114,-8.7727053846,,,,,,
"NF18_Z",26862,41.4488034229,-8.772579676,,,,,,
"NF19_S",12700,41.5036,-8.79687,,,,,,
"NF19_T",12701,41.5216,-8.79676,,,,,,
"NF19_U",12702,41.5396,-8.79665,,,,,,
"NF19_W",12704,41.4855,-8.77303,,,,,,
"NF19_X",12705,41.5035,-8.77292,,,,,,
"NF19_Y",12706,41.5215,-8.7728,,,,,,
"NF21_Q",12748,40.7463,-8.68056,,,,,,
"NF21_R",12749,40.7643,-8.68046,,,,,,
"NF21_S",12750,40.7823,-8.68035,,,,,,
"NF21_V",12753,40.7462,-8.65688,,,,,,
"NF21_W",12754,40.7643,-8.65677,,,,,,
"NF21_X",12755,40.7823,-8.65666,,,,,,
"NF22_Q",12773,40.8364,-8.68004,,,,,,
"NF22_R",12774,40.8544,-8.67994,,,,,,
"NF22_V",12778,40.8363,-8.65633,,,,,,
"NF22_W",12779,40.8543,-8.65622,,,,,,
"NF22_X",12780,40.8723,-8.65611,,,,,,
"NF22_Y",12781,40.8903,-8.656,,,,,,
"NF22_Z",12782,40.9083,-8.65589,,,,,,
"NF23_V",26869,40.926069952,-8.6556159757,,,,,,
"NF23_W",26861,40.9440857283,-8.6555224013,,,,,,
"NF23_X",26855,40.9621014479,-8.6554287421,,,,,,
"NF24_V",26865,41.0161482671,-8.6551472548,,,,,,
"NF24_Y",26859,41.0701945766,-8.654865001,,,,,,
"NF25",1201,41.144,-8.70347,,,,,,
"NF25_P",12797,41.1786,-8.7019,,,,,,
"NF25_R",12799,41.1245,-8.67838,,,,,,
"NF25_T",12801,41.1605,-8.67817,,,,,,
"NF25_V",12803,41.1064,-8.65467,,,,,,
"NF25_X",12805,41.1424,-8.65445,,,,,,
"NF25_Y",12806,41.1605,-8.65434,,,,,,
"NF25_Z",12807,41.1785,-8.65423,,,,,,
"NF26_S",12825,41.2326,-8.67775,,,,,,
"NF26_U",12827,41.2686,-8.67754,,,,,,
"NF26_Y",12831,41.2505,-8.65378,,,,,,
"NF27 _I",27575,41.3501666667,-8.733,,,,,,
"NF27_B",12834,41.3048,-8.74897,,,,,,
"NF27_C",12835,41.3228,-8.74889,,,,,,
"NF27_D",12836,41.3408,-8.74881,,,,,,
"NF27_D",27576,41.3461666667,-8.742,,,,,,
"NF27_E",12837,41.3588,-8.74872,,,,,,
"NF27_F",12838,41.2867,-8.72518,,,,,,
"NF27_H",12840,41.3227,-8.725,,,,,,
"NF27_K",12843,41.2867,-8.70131,,,,,,
"NF27_N",12846,41.3407,-8.70102,,,,,,
"NF27_P",12847,41.3587,-8.70092,,,,,,
"NF27_Q",12848,41.2866,-8.67744,,,,,,
"NF27_R",12849,41.3046,-8.67733,,,,,,
"NF27_S",12850,41.3226,-8.67723,,,,,,
"NF27_T",12851,41.3406,-8.67712,,,,,,
"NF28_A",12858,41.3768,-8.74864,,,,,,
"NF28_B",12859,41.3948,-8.74855,,,,,,
"NF28_G",12864,41.3948,-8.72464,,,,,,
"NF28_H",12865,41.4128,-8.72455,,,,,,
"NF28_I",12866,41.4308,-8.72446,,,,,,
"NF28_K",12868,41.3767,-8.70082,,,,,,
"NF28_L",12869,41.3947,-8.70073,,,,,,
"NF28_R",12874,41.3946,-8.67681,,,,,,
"NF28_T",12876,41.4306,-8.6766,,,,,,
"NF28_V",12878,41.3765,-8.65301,,,,,,
"NF30",1117,40.6932,-8.58712,,,,,,
"NF30_L",12919,40.6738,-8.58588,,,,,,
"NF30_P",12922,40.7279,-8.58542,,,,,,
"NF30_S",12925,40.6917,-8.56207,,,,,,
"NF31_E",12937,40.8182,-8.63274,,,,,,
"NF31_F",12938,40.7461,-8.60952,,,,,,
"NF31_I",12941,40.8001,-8.60915,,,,,,
"NF31_P",12947,40.818,-8.58532,,,,,,
"NF31_R",12949,40.7639,-8.56203,,,,,,
"NF31_Y",12956,40.7998,-8.53806,,,,,,
"NF33_B",12984,40.9443,-8.63192,,,,,,
"NF33_C",12985,40.9623,-8.6318,,,,,,
"NF33_D",12986,40.9803,-8.63168,,,,,,
"NF33_E",12987,40.9983,-8.63156,,,,,,
"NF33_F",12988,40.9262,-8.60829,,,,,,
"NF33_G",12989,40.9442,-8.60816,,,,,,
"NF33_H",12990,40.9622,-8.60804,,,,,,
"NF33_J",12992,40.9982,-8.60779,,,,,,
"NF33_L",12994,40.9441,-8.58441,,,,,,
"NF33_Q",12998,40.926,-8.5608,,,,,,
"NF33_R",12999,40.944,-8.56066,,,,,,
"NF33_V",13003,40.9259,-8.53706,,,,,,
"NF34_A",13008,41.0163,-8.63145,,,,,,
"NF34_D",13011,41.0703,-8.6311,,,,,,
"NF34_H",13015,41.0522,-8.60742,,,,,,
"NF34_L",13019,41.0341,-8.58376,,,,,,
"NF34_N",13021,41.0701,-8.5835,,,,,,
"NF34_U",13027,41.088,-8.55957,,,,,,
"NF35_C",13035,41.1424,-8.63063,,,,,,
"NF35_E",13037,41.1784,-8.63039,,,,,,
"NF35_H",13040,41.1423,-8.6068,,,,,,
"NF35_K",13043,41.1062,-8.58324,,,,,,
"NF35_M",13045,41.1422,-8.58298,,,,,,
"NF35_Q",13048,41.1061,-8.55944,,,,,,
"NF35_R",13049,41.1241,-8.5593,,,,,,
"NF35_T",13051,41.1601,-8.55903,,,,,,
"NF35_X",13055,41.142,-8.53534,,,,,,
"NF36_B",13059,41.2144,-8.63016,,,,,,
"NF36_C",13060,41.2324,-8.63004,,,,,,
"NF36_E",13062,41.2684,-8.62981,,,,,,
"NF36_I",13066,41.2503,-8.60606,,,,,,
"NF36_L",13069,41.2142,-8.58246,,,,,,
"NF36_P",13072,41.2682,-8.58207,,,,,,
"NF36_Q",13073,41.1961,-8.55875,,,,,,
"NF36_T",13076,41.2501,-8.55834,,,,,,
"NF37_C",13085,41.3224,-8.62945,,,,,,
"NF37_F",13088,41.2863,-8.60581,,,,,,
"NF37_H",27579,41.3321666667,-8.5971666667,,,,,,
"NF37_J",13092,41.3584,-8.60532,,,,,,
"NF37_N",13096,41.3403,-8.58155,,,,,,
"NF37_S",13100,41.3221,-8.55779,,,,,,
"NF37_V",13103,41.286,-8.53419,,,,,,
"NF38_A",13108,41.3765,-8.6291,,,,,,
"NF38_C",13110,41.4125,-8.62887,,,,,,
"NF38_G",13114,41.3944,-8.60507,,,,,,
"NF38_R",13124,41.3942,-8.55724,,,,,,
"NF38_V",13128,41.3761,-8.53347,,,,,,
"NF41_A",13183,40.7457,-8.5148,,,,,,
"NF41_D",13186,40.7997,-8.51436,,,,,,
"NF41_G",13189,40.7636,-8.49097,,,,,,
"NF41_K",13193,40.7454,-8.46744,,,,,,
"NF41_N",13196,40.7994,-8.46696,,,,,,
"NF41_R",13199,40.7633,-8.4436,,,,,,
"NF42_A",13208,40.8357,-8.51406,,,,,,
"NF42_E",13212,40.9077,-8.51346,,,,,,
"NF42_G",13214,40.8536,-8.49019,,,,,,
"NF42_J",13217,40.9076,-8.48973,,,,,,
"NF42_K",13218,40.8355,-8.46664,,,,,,
"NF42_N",13221,40.8895,-8.46615,,,,,,
"NF42_R",13224,40.8534,-8.44276,,,,,,
"NF42_S",13225,40.8714,-8.44259,,,,,,
"NF42_U",13227,40.9074,-8.44225,,,,,,
"NF42_V",13228,40.8352,-8.41921,,,,,,
"NF42_X",13230,40.8712,-8.41886,,,,,,
"NF43_F",13238,40.9256,-8.48957,,,,,,
"NF43_H",13240,40.9617,-8.48926,,,,,,
"NF43_J",13242,40.9977,-8.48895,,,,,,
"NF43_R",13249,40.9434,-8.44191,,,,,,
"NF43_U",13252,40.9974,-8.44141,,,,,,
"NF43_Y",13256,40.9793,-8.41781,,,,,,
"NF44_B",13259,41.0338,-8.51242,,,,,,
"NF44_D",13261,41.0698,-8.51212,,,,,,
"NF44_F",13263,41.0157,-8.48879,,,,,,
"NF44_H",13265,41.0517,-8.48848,,,,,,
"NF44_I",13266,41.0697,-8.48832,,,,,,
"NF44_L",13269,41.0336,-8.46485,,,,,,
"NF44_P",13272,41.0876,-8.46436,,,,,,
"NF45_F",13288,41.1057,-8.48801,,,,,,
"NF45_H",13290,41.1417,-8.4877,,,,,,
"NF45_J",13292,41.1778,-8.48738,,,,,,
"NF45_S",13300,41.1415,-8.44005,,,,,,
"NF45_V",13303,41.1053,-8.41658,,,,,,
"NF45_Y",13306,41.1594,-8.41606,,,,,,
"NF46_E",13312,41.2679,-8.51047,,,,,,
"NF46_G",13314,41.2138,-8.48707,,,,,,
"NF46_I",13316,41.2498,-8.48676,,,,,,
"NF46_K",13318,41.1956,-8.46339,,,,,,
"NF46_M",13320,41.2317,-8.46306,,,,,,
"NF46_P",13322,41.2677,-8.46273,,,,,,
"NF48_A",13358,41.376,-8.50957,,,,,,
"NF48_C",13360,41.412,-8.50927,,,,,,
"NF48_E",13362,41.448,-8.50896,,,,,,
"NF48_I",13366,41.4299,-8.48519,,,,,,
"NF48_M",13370,41.4117,-8.46143,,,,,,
"NF48_T",13376,41.4296,-8.43734,,,,,,
"NF51_K",13443,40.7447,-8.34905,,,,,,
"NF51_M",13445,40.7808,-8.34866,,,,,,
"NF53_E",13487,40.9972,-8.39387,,,,,,
"NF53_G",13489,40.943,-8.37066,,,,,,
"NF53_I",13491,40.979,-8.37029,,,,,,
"NF53_M",13495,40.9609,-8.34672,,,,,,
"NF53_P",13497,40.9969,-8.34633,,,,,,
"NF53_T",13501,40.9787,-8.32276,,,,,,
"NF54_C",13510,41.0512,-8.39332,,,,,,
"NF54_D",13511,41.0692,-8.39314,,,,,,
"NF54_E",13512,41.0872,-8.39296,,,,,,
"NF54_I",13516,41.069,-8.36934,,,,,,
"NF54_M",13520,41.0509,-8.34575,,,,,,
"NF54_P",13522,41.0869,-8.34535,,,,,,
"NF54_T",13526,41.0688,-8.32175,,,,,,
"NF54_Z",13532,41.0866,-8.29775,,,,,,
"NF55_U",13552,41.1768,-8.32054,,,,,,
"NF57_C",13585,41.3213,-8.39058,,,,,,
"NF57_E",13587,41.3573,-8.39022,,,,,,
"NF57_I",13591,41.3392,-8.36651,,,,,,
"NF57_M",13595,41.321,-8.34281,,,,,,
"NF57_V",13603,41.2847,-8.29546,,,,,,
"NF57_Z",13607,41.3567,-8.29462,,,,,,
"NF58_C",13610,41.4113,-8.38967,,,,,,
"NF58_F",13613,41.3752,-8.36613,,,,,,
"NF58_J",13617,41.4472,-8.36537,,,,,,
"NF58_T",13626,41.4289,-8.3177,,,,,,
"NF58_V",13628,41.3747,-8.29441,,,,,,
"NF58_Z",13632,41.4468,-8.29357,,,,,,
"NF62_C",13710,40.8703,-8.27652,,,,,,
"NF62_G",13714,40.8522,-8.25301,,,,,,
"NF62_K",13718,40.834,-8.22952,,,,,,
"NF62_N",13721,40.888,-8.22884,,,,,,
"NF62_S",13725,40.8698,-8.20535,,,,,,
"NF62_W",13729,40.8516,-8.18186,,,,,,
"NF64_H",13765,41.0503,-8.25059,,,,,,
"NF64_K",13768,41.0141,-8.22726,,,,,,
"NF64_M",13770,41.0501,-8.2268,,,,,,
"NF64_N",13771,41.0681,-8.22658,,,,,,
"NF64_R",13774,41.0319,-8.20325,,,,,,
"NF64_V",13778,41.0137,-8.17971,,,,,,
"NF64_W",13779,41.0317,-8.17947,,,,,,
"NF64_X",13780,41.0497,-8.17923,,,,,,
"NF64_Z",13782,41.0858,-8.17874,,,,,,
"NF65_A",13783,41.1045,-8.27374,,,,,,
"NF65_G",13789,41.1223,-8.24971,,,,,,
"NF65_I",13791,41.1583,-8.24926,,,,,,
"NF65_M",13795,41.1401,-8.22566,,,,,,
"NF65_P",13797,41.1762,-8.22521,,,,,,
"NF65_R",13799,41.122,-8.20208,,,,,,
"NF65_W",13804,41.1218,-8.17826,,,,,,
"NF66_C",13810,41.2305,-8.27223,,,,,,
"NF66_E",13812,41.2665,-8.2718,,,,,,
"NF66_I",13816,41.2484,-8.24815,,,,,,
"NF66_Q",13823,41.194,-8.20114,,,,,,
"NF66_U",13827,41.266,-8.2002,,,,,,
"NF66_W",13829,41.2118,-8.17706,,,,,,
"NF68_A",13858,41.3746,-8.2705,,,,,,
"NF68_C",13860,41.4106,-8.27007,,,,,,
"NF68_E",13862,41.4466,-8.26964,,,,,,
"NF68_I",13866,41.4284,-8.24593,,,,,,
"NF68_J",13867,41.4464,-8.2457,,,,,,
"NF68_K",13868,41.3742,-8.22269,,,,,,
"NF68_L",13869,41.3922,-8.22246,,,,,,
"NF68_N",13871,41.4283,-8.222,,,,,,
"NF68_U",13877,41.4461,-8.19784,,,,,,
"NF68_V",13878,41.3739,-8.17488,,,,,,
"NF68_X",13880,41.4099,-8.17439,,,,,,
"NF68_Z",13882,41.4459,-8.17391,,,,,,
"NF71_Z",13957,40.8147,-8.06382,,,,,,
"NF74_E",14012,41.0856,-8.15494,,,,,,
"NF74_F",14013,41.0134,-8.13216,,,,,,
"NF74_J",14017,41.0854,-8.13114,,,,,,
"NF74_K",14018,41.0132,-8.10838,,,,,,
"NF74_L",14019,41.0312,-8.10812,,,,,,
"NF74_N",14021,41.0672,-8.1076,,,,,,
"NF74_Q",14023,41.013,-8.08461,,,,,,
"NF74_S",14025,41.049,-8.08408,,,,,,
"NF74_V",14028,41.0128,-8.06083,,,,,,
"NF74_W",14029,41.0308,-8.06056,,,,,,
"NF74_X",14030,41.0488,-8.06029,,,,,,
"NF74_Y",14031,41.0668,-8.06001,,,,,,
"NF74_Z",14032,41.0848,-8.05974,,,,,,
"NF75_B",14034,41.1216,-8.15445,,,,,,
"NF75_F",14038,41.1034,-8.13089,,,,,,
"NF75_G",14039,41.1214,-8.13064,,,,,,
"NF75_H",14040,41.1394,-8.13038,,,,,,
"NF75_L",14044,41.1212,-8.10682,,,,,,
"NF75_M",14045,41.1392,-8.10656,,,,,,
"NF75_N",14046,41.1572,-8.1063,,,,,,
"NF75_S",14050,41.139,-8.08274,,,,,,
"NF75_X",14055,41.1388,-8.05892,,,,,,
"NF75_Z",14057,41.1748,-8.05837,,,,,,
"NF76_F",14063,41.1934,-8.12962,,,,,,
"NF76_G",14064,41.2114,-8.12937,,,,,,
"NF76_L",14069,41.2112,-8.10552,,,,,,
"NF76_N",14071,41.2473,-8.105,,,,,,
"NF76_Q",14073,41.193,-8.08194,,,,,,
"NF76_S",14075,41.2291,-8.0814,,,,,,
"NF76_W",14079,41.2108,-8.05783,,,,,,
"NF77_N",14096,41.3373,-8.10369,,,,,,
"NF77_Q",14098,41.2831,-8.0806,,,,,,
"NF77_S",14100,41.3191,-8.08006,,,,,,
"NF77_T",14101,41.3371,-8.0798,,,,,,
"NF77_U",14102,41.3551,-8.07953,,,,,,
"NF77_W",14104,41.3009,-8.05645,,,,,,
"NF78_U",14127,41.4451,-8.07818,,,,,,
"NF79_C",14135,41.4996,-8.15015,,,,,,
"NF79_E",14137,41.5356,-8.14957,,,,,,
"NF79_F",14138,41.4633,-8.12678,,,,,,
"NF79_I",14141,41.5173,-8.1259,,,,,,
"NF79_L",14144,41.4811,-8.10254,,,,,,
"NF79_T",14151,41.5169,-8.07799,,,,,,
"NF83_E",14237,40.9945,-8.03734,,,,,,
"NF83_N",14246,40.9761,-7.9901,,,,,,
"NF83_U",14252,40.9939,-7.96604,,,,,,
"NF83_V",14253,40.9216,-7.94349,,,,,,
"NF83_W",14254,40.9396,-7.94318,,,,,,
"NF83_Y",14256,40.9756,-7.94257,,,,,,
"NF85_C",14285,41.1386,-8.0351,,,,,,
"NF85_D",14286,41.1566,-8.03482,,,,,,
"NF85_E",14287,41.1746,-8.03454,,,,,,
"NF85_F",14288,41.1024,-8.01186,,,,,,
"NF85_I",14291,41.1564,-8.011,,,,,,
"NF85_J",14292,41.1744,-8.01071,,,,,,
"NF85_K",14293,41.1022,-7.98805,,,,,,
"NF85_M",14295,41.1382,-7.98746,,,,,,
"NF85_P",14297,41.1742,-7.98688,,,,,,
"NF85_Q",14298,41.1019,-7.96424,,,,,,
"NF86_D",14311,41.2466,-8.03342,,,,,,
"NF86_H",14315,41.2284,-8.00985,,,,,,
"NF86_K",14318,41.1922,-7.98658,,,,,,
"NF86_R",14324,41.21,-7.96244,,,,,,
"NF86_V",14328,41.1917,-7.93891,,,,,,
"NF86_X",14330,41.2278,-7.93829,,,,,,
"NF88_A",14358,41.3727,-8.03145,,,,,,
"NF88_E",14362,41.4447,-8.03032,,,,,,
"NF88_I",14366,41.4265,-8.00667,,,,,,
"NF88_K",14368,41.3723,-7.98364,,,,,,
"NF88_M",14370,41.4083,-7.98305,,,,,,
"NF88_N",14371,41.4263,-7.98275,,,,,,
"NF88_R",14374,41.39,-7.95943,,,,,,
"NF88_S",14375,41.408,-7.95913,,,,,,
"NF88_T",14376,41.4261,-7.95883,,,,,,
"NF88_V",14378,41.3718,-7.93583,,,,,,
"NF88_Z",14382,41.4438,-7.93459,,,,,,
"NF90_A",14408,40.6507,-7.92393,,,,,,
"NF90_B",14409,40.6687,-7.9236,,,,,,
"NF90_F",14413,40.6504,-7.90029,,,,,,
"NF90_N",14421,40.7042,-7.87561,,,,,,
"NF90_S",14425,40.6859,-7.8523,,,,,,
"NF94_A",14508,41.0114,-7.91819,,,,,,
"NF94_B",14509,41.0294,-7.91788,,,,,,
"NF94_C",14510,41.0474,-7.91757,,,,,,
"NF94_D",14511,41.0655,-7.91726,,,,,,
"NF94_E",14512,41.0835,-7.91694,,,,,,
"NF94_F",14513,41.0112,-7.89442,,,,,,
"NF94_G",14514,41.0292,-7.8941,,,,,,
"NF94_H",14515,41.0472,-7.89378,,,,,,
"NF94_I",14516,41.0652,-7.89346,,,,,,
"NF94_L",14519,41.029,-7.87032,,,,,,
"NF94_M",14520,41.047,-7.87,,,,,,
"NF95_A",14533,41.1015,-7.91663,,,,,,
"NF96_J",14567,41.2633,-7.88995,,,,,,
"NF96_K",14568,41.191,-7.86739,,,,,,
"NF96_M",14570,41.227,-7.86674,,,,,,
"NF96_P",14572,41.263,-7.86609,,,,,,
"NF96_R",14574,41.2088,-7.84322,,,,,,
"NF96_U",14577,41.2628,-7.84222,,,,,,
"NF96_Y",14581,41.2445,-7.8187,,,,,,
"NF97_C",14585,41.3175,-7.91287,,,,,,
"NF97_D",14586,41.3356,-7.91256,,,,,,
"NF97_G",14589,41.2993,-7.88931,,,,,,
"NF97_J",14592,41.3533,-7.88834,,,,,,
"NF97_K",14593,41.2811,-7.86576,,,,,,
"NF97_M",14595,41.3171,-7.8651,,,,,,
"NF97_N",14596,41.3351,-7.86477,,,,,,
"NF97_R",14599,41.2988,-7.84155,,,,,,
"NF97_U",14602,41.3528,-7.84055,,,,,,
"NF97_V",14603,41.2805,-7.81802,,,,,,
"NF98_C",14610,41.4076,-7.9113,,,,,,
"NF98_I",14616,41.4253,-7.88706,,,,,,
"NF98_K",14618,41.3711,-7.86412,,,,,,
"NF98_S",14625,41.4068,-7.83954,,,,,,
"NF98_V",14628,41.3706,-7.81631,,,,,,
"NF98_Y",14631,41.4246,-7.81529,,,,,,
"NG10_P",14672,41.6297,-8.82012,,,,,,
"NG10_Q",14673,41.5576,-8.79655,,,,,,
"NG10_R",14674,41.5756,-8.79644,,,,,,
"NG10_T",14676,41.6116,-8.79623,,,,,,
"NG10_X",14680,41.5935,-8.77235,,,,,,
"NG10_Z",14682,41.6295,-8.77212,,,,,,
"NG11_D",14686,41.7018,-8.86777,,,,,,
"NG11_E",14687,41.7198,-8.86768,,,,,,
"NG11_H",14690,41.6838,-8.84384,,,,,,
"NG11_I",14691,41.7018,-8.84374,,,,,,
"NG11_K",14693,41.6477,-8.82002,,,,,,
"NG11_L",14694,41.6657,-8.81992,,,,,,
"NG11_M",14695,41.6837,-8.81982,,,,,,
"NG11_T",14701,41.7016,-8.79569,,,,,,
"NG11_X",14705,41.6835,-8.77178,,,,,,
"NG12_R",14724,41.7556,-8.79537,,,,,,
"NG13_A",14733,41.8279,-8.86716,,,,,,
"NG13_C",14735,41.8639,-8.86699,,,,,,
"NG13_N",14746,41.8818,-8.81871,,,,,,
"NG13_P",14747,41.8998,-8.81861,,,,,,
"NG13_R",14749,41.8457,-8.79483,,,,,,
"NG13_W",14754,41.8456,-8.77075,,,,,,
"NG20_E",14762,41.6294,-8.74812,,,,,,
"NG20_I",14766,41.6113,-8.72425,,,,,,
"NG20_M",14770,41.5932,-8.70039,,,,,,
"NG20_P",14772,41.6292,-8.70012,,,,,,
"NG20_Z",14782,41.629,-8.65212,,,,,,
"NG21_A",14783,41.6474,-8.748,,,,,,
"NG21_K",14793,41.6472,-8.69999,,,,,,
"NG21_Q",14798,41.6471,-8.67598,,,,,,
"NG22_C",14810,41.7735,-8.74715,,,,,,
"NG22_I",14816,41.7914,-8.72297,,,,,,
"NG22_L",14819,41.7553,-8.69918,,,,,,
"NG22_P",14822,41.8093,-8.69878,,,,,,
"NG22_X",14830,41.7731,-8.65094,,,,,,
"NG24_B",14859,41.9355,-8.74607,,,,,,
"NG24_H",14865,41.9534,-8.72183,,,,,,
"NG24_I",14866,41.9714,-8.7217,,,,,,
"NG24_L",14869,41.9353,-8.69784,,,,,,
"NG24_T",14876,41.9712,-8.67344,,,,,,
"NG24_W",14879,41.9351,-8.64961,,,,,,
"NG30",1306,41.594,-8.58143,,,,,,
"NG31_A",14908,41.6469,-8.62797,,,,,,
"NG31_G",14914,41.6648,-8.6038,,,,,,
"NG31_K",14918,41.6467,-8.57995,,,,,,
"NG31_M",14920,41.6827,-8.57962,,,,,,
"NG31_R",14924,41.6646,-8.55577,,,,,,
"NG31_T",14926,41.7006,-8.55542,,,,,,
"NG31_X",14930,41.6824,-8.53158,,,,,,
"NG35_C",15010,42.043,-8.62457,,,,,,
"NG35_G",15014,42.0249,-8.60058,,,,,,
"NG35_M",15020,42.0428,-8.57626,,,,,,
"NG35_R",15024,42.0247,-8.55228,,,,,,
"NG35_X",15030,42.0425,-8.52795,,,,,,
"NG35_Z",15032,42.0786,-8.52759,,,,,,
"NG43_W",15129,41.8437,-8.40955,,,,,,
"NG44_H",15140,41.9522,-8.48062,,,,,,
"NG44_L",15144,41.9341,-8.4567,,,,,,
"NG44_N",15146,41.9701,-8.4563,,,,,,
"NG44_Q",15148,41.9159,-8.43279,,,,,,
"NG44_S",15150,41.9519,-8.43238,,,,,,
"NG44_W",15154,41.9338,-8.40847,,,,,,
"NG51_A",15208,41.6455,-8.3879,,,,,,
"NG51_F",15213,41.6453,-8.3639,,,,,,
"NG51_G",15214,41.6634,-8.36367,,,,,,
"NG51_I",15216,41.6994,-8.36322,,,,,,
"NG51_M",15220,41.6812,-8.33942,,,,,,
"NG51_P",15222,41.7172,-8.33896,,,,,,
"NG51_V",15228,41.6448,-8.29188,,,,,,
"NG51_X",15230,41.6808,-8.29139,,,,,,
"NG53_N",15271,41.8792,-8.33684,,,,,,
"NG53_Q",15273,41.8251,-8.31347,,,,,,
"NG53_W",15279,41.8429,-8.28915,,,,,,
"NG53_Y",15281,41.8789,-8.28865,,,,,,
"NG55_A",15308,42.0056,-8.38347,,,,,,
"NG55_C",15310,42.0416,-8.38302,,,,,,
"NG55_E",15312,42.0777,-8.38258,,,,,,
"NG55_G",15314,42.0235,-8.3591,,,,,,
"NG55_I",15316,42.0595,-8.35864,,,,,,
"NG55_P",15322,42.0773,-8.33424,,,,,,
"NG60_D",15336,41.6086,-8.26838,,,,,,
"NG60_F",15338,41.5544,-8.24517,,,,,,
"NG60_H",15340,41.5904,-8.24465,,,,,,
"NG60_J",15342,41.6264,-8.24413,,,,,,
"NG60_R",15349,41.572,-8.19696,,,,,,
"NG60_T",15351,41.608,-8.19641,,,,,,
"NG62_B",15384,41.7527,-8.26635,,,,,,
"NG62_D",15386,41.7887,-8.26584,,,,,,
"NG62_K",15393,41.7343,-8.21853,,,,,,
"NG62_R",15399,41.7521,-8.19421,,,,,,
"NG62_U",15402,41.8061,-8.19339,,,,,,
"NG62_X",15405,41.7699,-8.16989,,,,,,
"NG64_C",15435,41.9507,-8.26353,,,,,,
"NG64_E",15437,41.9867,-8.26302,,,,,,
"NG64_G",15439,41.9325,-8.23968,,,,,,
"NG64_H",15440,41.9505,-8.23942,,,,,,
"NG64_N",15446,41.9683,-8.21503,,,,,,
"NG64_P",15447,41.9863,-8.21476,,,,,,
"NG66_A",15483,42.0948,-8.26148,,,,,,
"NG66_G",15488,42.1126,-8.23704,,,,,,
"NG66_K",15491,42.0944,-8.21313,,,,,,
"NG66_M",15493,42.1304,-8.21259,,,,,,
"NG66_R",15496,42.1122,-8.18868,,,,,,
"NG66_T",15498,42.1482,-8.18812,,,,,,
"NG71_C",15530,41.6796,-8.14728,,,,,,
"NG71_F",15533,41.6434,-8.12385,,,,,,
"NG71_J",15537,41.7154,-8.12267,,,,,,
"NG71_N",15541,41.6972,-8.09894,,,,,,
"NG71_R",15544,41.6609,-8.07553,,,,,,
"NG71_Z",15552,41.7147,-8.05058,,,,,,
"NG75_A",15578,42.0037,-8.14207,,,,,,
"NG75_B",15579,42.0217,-8.14178,,,,,,
"NG75_C",15580,42.0397,-8.14148,,,,,,
"NG75_D",15581,42.0577,-8.14119,,,,,,
"NG75_E",15582,42.0757,-8.1409,,,,,,
"NG75_G",15584,42.0215,-8.11763,,,,,,
"NG80_D",15606,41.6065,-8.02847,,,,,,
"NG80_G",15609,41.5702,-8.00514,,,,,,
"NG80_M",15615,41.588,-7.98083,,,,,,
"NG80_P",15617,41.624,-7.98016,,,,,,
"NG80_Q",15618,41.5517,-7.95752,,,,,,
"NG80_Y",15626,41.6055,-7.93251,,,,,,
"NG82_A",15653,41.7325,-8.02622,,,,,,
"NG82_H",15660,41.7683,-8.00153,,,,,,
"NG82_Q",15668,41.7317,-7.95411,,,,,,
"NG82_S",15670,41.7678,-7.95343,,,,,,
"NG82_U",15672,41.8038,-7.95274,,,,,,
"NG82_Y",15676,41.7855,-7.92903,,,,,,
"NG91_G",15734,41.6589,-7.88345,,,,,,
"NG91_I",15736,41.6949,-7.88273,,,,,,
"NG91_M",15740,41.6767,-7.85907,,,,,,
"NG91_P",15742,41.7127,-7.85834,,,,,,
"NG91_R",15744,41.6584,-7.83543,,,,,,
"NG91_X",15750,41.6761,-7.81104,,,,,,
"NG91_Z",15752,41.7121,-7.81028,,,,,,
"NG93_C",15780,41.8573,-7.90355,,,,,,
"NG93_E",15782,41.8933,-7.90283,,,,,,
"NG93_K",15788,41.8207,-7.85612,,,,,,
"NG93_M",15790,41.8567,-7.85538,,,,,,
"NG93_W",15799,41.8381,-7.8076,,,,,,
"NG93_Y",15801,41.8742,-7.80683,,,,,,
"Nisa",27057,39.4605,-7.636,,,,,,
"Nisa",1611,39.518741,-7.648888,,,,,,
"Nisa - Espirito Santo - Área nº 1",1731,39.4938333333,-7.605,,,,,,
"Nisa- Barragem do Poio",27574,39.5066666667,-7.58,,,,,,
"No Oceano Atlântico, ao largo Sagres",27091,36.998,-9.0443333333,,,,,,
"Nossa Senhora de Aracelis",227,"37.745833333333","-7.8866666666667",,"Nossa Senhora de Aracelis","02","PT","37.7460365","-7.8866561"
"Oeiras",1637,39.7071666667,-7.8881666667,,,,,,
"Oeiras - Passeio Marítimo",27291,"38.6788","-9.3165",,"Oeiras--passeio marítimo (INATEL)","11","PT","38.6801287","-9.3156445"
"Oeiras: Linda-a-Velha",354,38.709,-9.2351666667,,,,,,
"Olhao Municipality",27475,37.0276666667,-7.8448333333,,,,,,
"Ourique",27524,37.6718333333,-8.2523333333,,,,,,
"PA09",403,36.9934,-7.82135,,,,,,
"PA09_B",15804,36.9745,-7.86248,,,,,,
"PA09_E",15806,37.028264,-7.864691,,,,,,
"PA09_H",15809,36.991997,-7.842756,,,,,,
"PA09_P",15813,37.0282,-7.81701,,,,,,
"PA09_T",15817,37.0101,-7.79472,,,,,,
"PA09_Z",15821,37.0279,-7.77206,,,,,,
"Paço d'Arcos",1752,38.6926666667,-9.2916666667,,,,,,
"Paços da Serra, Gouveia",27447,40.463749,-7.639306,,,,,,
"Palácio Peninha - Sintra",1544,"38.768666666667","-9.461",,"PN Sintra-Cascais--Peninha","11","PT","38.7785435","-9.4639492"
"Palhais, Sertã",27359,39.76966,8.19095,,,,,,
"Pampilhosa - Serra do Buçaco",1818,40.3408333333,-8.4133333333,,,,,,
"Pampilhosa Da Serra - Barragem de Santa Luzia - Área nº 1",2026,40.0896666667,-7.8575,,,,,,
"Pancas - RNET",1558,38.7818333333,-8.9163333333,,,,,,
"Papoa / Cabo Carvoeiro",2035,39.3721666667,-9.376,,,,,,
"Paranhos - Porto",27597,41.1725,-8.6076666667,,,,,,
"Parque Ambiental do Alambre",27593,"38.489468","-9.029405","Portugal (mainland)","PN Arrábida--Alambre","15","PT","38.493576","-9.0281413"
"Parque Ambiental do Alambre",27469,38,9,,,,,,
"Parque Botânico do Monteiro Mor",2082,38.7753333333,-9.1673333333,,,,,,
"Parque Botânico Monteiro-Mor - Museu Nacional Traje",27149,38.7753333333,-9.1661666667,,,,,,
"Parque Cidade, ponte do lago grande.Nevogilde,Porto",27591,1,1,,,,,,
"Parque da Cidade - Porto",27211,41.1686666667,-8.683,,,,,,
"Parque da cidade do Porto",27150,41.1705,-8.6839,,,,,,
"Parque da Cidade Póvoa de Varzim",27581,"41.398666666667","-8.756",,"Parque da Cidade da Póvoa do Varzim","13","PT","41.3996295","-8.7534476"
"Parque da Paz - Almada",27184,38.662986,-9.167426,,,,,,
"Parque das Nações - Lisboa",1549,"38.782833333333","-9.0911666666667",,"Parque do Tejo","11","PT","38.7833131","-9.0920265"
"Parque de Avioso - Maia",27237,41.289,-8.6106666667,,,,,,
"Parque de Natureza de Noudar",27417,38.178,-7.0298333333,,,,,,
"Parque de Serralves, Porto",27307,41.159,-8.658,,,,,,
