"Worldbirds Location","Worldbirds Location ID","Worldbirds Latitude","Worldbirds Longitude","Worldbirds Region/State","eBird Location","eBird Region Code","eBird Country Code","eBird Latitude","eBird Longitude"
"A3/A4 - Cruzamento",27298,41.197,-8.5876666667,,,,"PT",,
"A5 Setúbal-Évora-Elvas",27600,38.6253333333,-7.943,,,,"PT",,
"aaa",2055,39.24,-9.54,,,,"PT",,
"Abicada / Ria de Alvor",2034,37.1515,-8.5966666667,,,,"PT",,
"Aguçadoura",27587,41.4166666667,-8.787,,,,"PT",,
"Alares, Tejo Internacional, Castelo Branco",27373,"39.657166666667","-7.1606666666667",,"PN Tejo Internacional--Posto dos Alares                               ","PT-05","PT","39.6593572","-7.1714736"
"Albufeira de Montargil",137,39.074,-8.1616666667,,,,"PT",,
"Albufeira de Nossa Senhora da Tourega, Valverde, Évora",27371,38.5038333333,-8.0326666667,,,,"PT",,
"Albufeira de Santa Águeda (ou Marateca)",1783,39.9696666667,-7.4846666667,,,,"PT",,
"Albufeira do Azibo",106,41.5708333333,-6.9096666667,,,,"PT",,
"Albufeira do Maranhão, Avis",27266,39.7071666667,-7.8881666667,,,,"PT",,
"Albufeira do Maranhão, Benavila, Avis",27406,39.111079,-7.877728,,,,"PT",,
"Albufeira dos Minutos, Montemor-o-Novo",27366,38.6588333333,-8.0968333333,,,,"PT",,
"Alcochete - Hortas",27583,38.76,-8.9368333333,,,,"PT",,
"Alcochete: Alcochete",337,38.7551666667,-8.9636666667,,,,"PT",,
"Alcoutim (vila)",1888,37.4711666667,-7.4711666667,,,,"PT",,
"Aldeia Viçosa, Guarda (Serra da Estrela)",27493,40.568002,7.312517,,,,"PT",,
"Aldeias, Gouveia",27427,40.470836,-7.599184,,,,"PT",,
"Alijó (concelho todo)",27537,41.2695,-7.4775,,,,"PT",,
"Aljezur",27470,37.321028,8.805542,,,,"PT",,
"Aljezur - Quinta do Lago Silencioso",27468,37.303774,8.832536,,,,"PT",,
"Aljustrel",1690,37.8728333333,-8.158,,,,"PT",,
"Almarjao",27488,37.1811666667,-7.9526666667,,,,"PT",,
"Almendra, Vila Nova de Foz Côa",27319,41.034898,-7.002336,,,,"PT",,
"Alpalhão - Nisa",297,39.4141666667,-7.6426666667,,,,"PT",,
"Alto da Pedrice, Serra da Estrela",27568,40.3126666667,-7.5733333333,,,,"PT",,
"Ameada, Mourão",27323,38.3218333333,-7.2211666667,,,,"PT",,
"Ameirinhos-Estrada da Ponte, Murtosa",175,40.7665,-8.6715,,,,"PT",,
"Amoreira/Foz da ribeira de Aljezur",27453,"37.335333333333","-8.8535",,"PN Costa Vicentina e Sudoeste Alentejano--Ribeira de Aljezur","PT-08","PT","37.3368732","-8.8347942"
"Angueira - QG11Q",27538,41.603,-6.4166666667,,,,"PT",,
"Antas - Arruda dos Vinhos",27478,38.9903333333,-9.0495,,,,"PT",,
"ao largo de Salema",27510,37.043,-8.8191666667,,,,"PT",,
"Arcos de Valdevez - Vila (NG43_W)",1692,41.5041,-8.2435,,,,"PT",,
"Arcozelo, Gouveia",27450,40.535068,-7.623502,,,,"PT",,
"Areão",27344,40.5501666667,-8.7641666667,,,,"PT",,
"Armacao de Pera",27482,"37.103","-8.3683333333333",,"Armação de Pêra","PT-08","PT","37.1001325","-8.3580208"
"Arrábida - Aldeia de Irmãos / Casais da Serra",27270,"38.488","-9.0293333333333","Portugal (mainland)","PN Arrábida--Alambre","PT-15","PT","38.493576","-9.0281413"
"Arronches - Barragem do Brilongo - Área nº 1",1723,39.107,-7.1461666667,,,,"PT",,
"Arrozais da Giganta",25479,"38.916","-8.9291666666667","Portugal (mainland)","Estuário do Tejo--Arrozais da Giganta","PT-11","PT","38.9159291","-8.9326572"
"Atalaia do Campo - Alpedrinha",27565,40.0515,-7.4278333333,,,,"PT",,
"Aveiro - Atrás da Universidade até salina",27061,40.6315,-8.6628333333,,,,"PT",,
"Aveiro - Salinas - Área nº 1",1647,40.6431666667,-8.6638333333,,,,"PT",,
"Aveiro-Salinas-Área 1",27380,40.6413333333,-8.6663333333,,,,"PT",,
"Aveiro-Salinas-Área 2",27381,40.649,-8.6553333333,,,,"PT",,
"Aveiro-Salinas-U.A",27378,40.63,-8.6663333333,,,,"PT",,
"Aveleda",27490,41.8868333333,-6.6998333333,,,,"PT",,
"Baía de Cascais, Cascais",308,38.6966666667,-9.4198333333,,,,"PT",,
"Baixa do Rio Seia, Seia",27318,40.430446,-7.709372,,,,"PT",,
"Barragem de Fagauste, Rio Douro, Regua",2131,41.144,-7.7388333333,,,,"PT",,
"Barragem de Fagilde, Mangualde",27196,40.385,7.4542,,,,"PT",,
"Barragem de Poio, Nisa",1610,39.469761,-7.54735,,,,"PT",,
"Barragem de Vilarinho das Furnas",27345,41.7,8.2,,,,"PT",,
"Barragem do Caldeirão, Guarda",27448,40.531347,-7.330088,,,,"PT",,
"Barragem do Divor - Igrejinha",1624,38.6991666667,-7.9291666667,,,,"PT",,
"Barragem do Poio",27263,39.488,-7.5701666667,,,,"PT",,
"Barrinha de Esmoriz/Lagoa de Paramos IBA",11,40.96666667,-8.633333333,,,,"PT",,
"Barrinha de Mira",2145,40.4541666667,-8.7973333333,,,,"PT",,
"Barroca d'Alva",138,38.73760833,-8.900397222,,,,"PT",,
"Batateiro, Gave, Melgaço",27337,41.993264,-8.271189,,,,"PT",,
"BB83_W",2170,32.8185,-17.2579,,,,"PT",,
"BB92_D",2171,32.7648,-17.2352,,,,"PT",,
"BB92_H",2173,32.7471,-17.2134,,,,"PT",,
"BB92_N",2178,32.7655,-17.1925,,,,"PT",,
"BB92_S",2182,32.7479,-17.1707,,,,"PT",,
"BB92_U",2184,32.7839,-17.1716,,,,"PT",,
"BB92_Y",2188,32.7663,-17.1498,,,,"PT",,
"BB93_A",2190,32.8008,-17.2361,,,,"PT",,
"BB93_C",2192,32.8369,-17.237,,,,"PT",,
"BB93_N",2200,32.8557,-17.1947,,,,"PT",,
"BB93_W",2207,32.8204,-17.1511,,,,"PT",,
"BB93_Y",2209,32.8564,-17.152,,,,"PT",,
"Beja",1689,38.0141666667,-7.8631666667,,,,"PT",,
"Belém, Lisboa",314,38.6938333333,-9.207,,,,"PT",,
"Bico do Muranzel, Ria de Aveiro, Murtosa",25481,40.7311666667,-8.6546666667,,,,"PT",,
"Boca do Rio, Budens, Vila do Bispo",2056,"37.067666666667","-8.8091666666667",,"PN Sudoeste Alentejano e Costa Vicentina--Boca do Rio","PT-08","PT","37.0757486","-8.8012798"
"Braga- Bom Jesus",27394,39.7071666667,-7.8881666667,,,,"PT",,
"CA59_Y",2211,32.5014,-16.5009,,,,"PT",,
"CA59_Z",2212,32.5195,-16.5012,,,,"PT",,
"CA68_D",2213,32.4115,-16.4782,,,,"PT",,
"Cabeço Alto, Rosmaninhal",27374,39.7326666667,-7.0415,,,,"PT",,
"Cabo Carvoeiro",27485,39.3598333333,-9.4086666667,,,,"PT",,
"Cabo da Roca",1600,"38.780057","-9.498861","Portugal (mainland)","PN Sintra-Cascais--Cabo da Roca","PT-11","PT","38.7804505","-9.4989467"
"Cabo de São Vicente - Sagres",27483,"37.023666666667","-8.9956666666667","Portugal (mainland)","PN Sudoeste Alentejano e Costa Vicentina--Cabo de São Vicente","PT-08","PT","37.0234432","-8.9956972"
"Cabo Espichel",143,"38.4135","-9.2201666666667","Portugal (mainland)","PN Arrábida--IBA Cabo Espichel","PT-15","PT","38.414005","-9.217701"
"Cabo Espichel IBA",15,"38.41666667","-9.183333333","Portugal (mainland)","PN Arrábida--IBA Cabo Espichel","PT-15","PT","38.414005","-9.217701"
"Cabo Raso",142,"38.708666666667","-9.4853333333333","Portugal (mainland)","PN Sintra-Cascais--Cabo Raso","PT-11","PT","38.7094577","-9.485836"
"Cabo Sardão",2110,"37.6065","-8.8171666666667","Portugal (mainland)","PN Costa Vicentina e Sudoeste Alentejano--Cabo Sardão","PT-02","PT","37.5975486","-8.8165958"
"Caféde, Castelo Branco",1794,39.926983,-7.510872,,,,"PT",,
"Cais do Areão",27306,40.5115,-8.7771666667,,,,"PT",,
"Caldeirão do Corvo",217,39.7103333333,-31.1083333333,,,,"PT",,
"Calhariz",27433,"38.4633","-9.056","Portugal (mainland)","PN Arrábida--Calhariz","PT-15","PT","38.4633","-9.056"
"Cambarinho (parque botânico)",27464,40.6803333333,-8.2066666667,,,,"PT",,
"Caminho agricola com montado",27339,39.7071666667,-7.8881666667,,,,"PT",,
"Caminho agricola proximo da estrada nacional 3",27338,39.7071666667,-7.8881666667,,,,"PT",,
"Campo de Golfe de Rilhadas - Fafe",27223,41.4265,-8.2133333333,,,,"PT",,
"Campo de Golfe Oporto GC - Espinho",27299,40.988,-8.6423333333,,,,"PT",,
"Campo Grande, Lisboa",1828,38.757796,-9.15461,,,,"PT",,
"Campo Maior - Barragem do Caia - Área nº 1",1718,"39.0035","-7.1593333333333",,"IBA Albufeira do Caia","PT-12","PT","39.0120223","-7.1515536"
"Campo Pequeno - Lisboa",1660,38.7423333333,-9.1451666667,,,,"PT",,
"Caneiros, Oleiros",27472,40.023737,-7.874708,,,,"PT",,
"Canhão Submarino de Portimão",27536,39.7071666667,-7.8881666667,,,,"PT",,
"Canical",27558,32.7366666667,-16.7378333333,,,,"PT",,
"Canidelo, Vila Nova de Gaia",2109,41.1368333333,-8.6606666667,,,,"PT",,
"Cantelães - Vieira do Minho",27279,41.6451666667,-8.1308333333,,,,"PT",,
"Caramulo - circuito",27459,40.5695,-8.1776666667,,,,"PT",,
"Carcavelos - minha casa",186,38.6846666667,-9.3291666667,,,,"PT",,
"Carrapateiro - Reserva Natural",27350,38.82864,-8.881087,,,,"PT",,
"Carrasqueira, IBA Estuario do Sado",185,38.4136666667,-8.7543333333,,,,"PT",,
"Carvalhais",27518,40.4815,-8.6773333333,,,,"PT",,
"Casa",27379,40.4898333333,-8.687,,,,"PT",,
"Casa Branca",27346,38.4641666667,-8.1595,,,,"PT",,
"Casais da Serra, Serra da Arrábida",27467,38.480604,-9.031277,,,,"PT",,
"Casais do Douro",27276,41.1743333333,-7.5538333333,,,,"PT",,
"Casal da Texuga",27340,39.7071666667,-7.8881666667,,,,"PT",,
"Cascais, Oitavos",27570,38.6997,-9.4677,,,,"PT",,
"Cascais, Paqrque de Palmela",27312,38.704238,-9.413385,,,,"PT",,
"Cascais, Parque da Ribeira dos Mochos",27395,38.698844,-9.430119,,,,"PT",,
"Castelo Branco - arredores da cidade",1673,39.7071666667,-7.8881666667,,,,"PT",,
"Castelo Branco - zona industrial",1674,39.7071666667,-7.8881666667,,,,"PT",,
"Castelo de Marvão",1587,39.3926666667,-7.3738333333,,,,"PT",,
"Castelo de Noudar, Barrancos",1889,"38.178","-7.0631666666667","Portugal (mainland)","Barrancos--Castelo de Noudar","PT-02","PT","38.1777372","-7.0622295"
"Castelo de Vide",241,39.413,-7.4546666667,,,,"PT",,
"Castelo de Vide - Barragem de Póvoa e Meadas - Área nº 1",1732,39.4771666667,-7.5525,,,,"PT",,
"Castelo de Vide - N. S. Graça de Póvoa e Medas",27301,39.511,-7.5195,,,,"PT",,
"Castelo De Vide - N.S. Da Graça da Povoa e Meadas - Área nº 1",1730,39.5118333333,-7.5018333333,,,,"PT",,
"Castelo Rodrigo (perímetro urbano)",2153,40.8765,-6.9641666667,,,,"PT",,
"Castro Marim - Salinas - Área nº 1",1712,37.2288333333,-7.4271666667,,,,"PT",,
"Castro Marim - Salinas - Área nº 2",1711,37.20305,-7.44833,,,,"PT",,
"Castro Marim IBA",19,37.2,-7.4333,,,,"PT",,
"Castro Verde",1754,37.6921666667,-8.0816666667,,,,"PT",,
"Castro Verde",139,37.69520278,-8.080986111,,,,"PT",,
"Castro Verde - Entradas - Área nº 1",1716,37.794,-8.0555,,,,"PT",,
"Castro Verde IBA",20,37.75,-8,,,,"PT",,
"Cativelos, Gouveia",27422,40.546448,-7.702836,,,,"PT",,
"CB01_E",2215,32.6945,-17.1268,,,,"PT",,
"CB01_J",2216,32.6949,-17.1055,,,,"PT",,
"CB01_N",2217,32.6772,-17.0837,,,,"PT",,
"CB01_T",2219,32.6776,-17.0624,,,,"PT",,
"CB01_X",2221,32.6599,-17.0407,,,,"PT",,
"CB01_Z",2223,32.6959,-17.0415,,,,"PT",,
"CB02_A",2224,32.7126,-17.1272,,,,"PT",,
"CB02_H",2230,32.749,-17.1067,,,,"PT",,
"CB02_R",2239,32.7317,-17.0636,,,,"PT",,
"CB02_T",2241,32.7677,-17.0645,,,,"PT",,
"CB02_V",2243,32.714,-17.0419,,,,"PT",,
"CB02_X",2245,32.75,-17.0427,,,,"PT",,
"CB03_A",2162,32.8026666667,-17.1291666667,,,,"PT",,
"CB03_B",2161,32.8207,-17.1298,,,,"PT",,
"CB03_F",2164,32.8031,-17.108,,,,"PT",,
"CB03_G",2163,32.8211,-17.1084,,,,"PT",,
"CB03_Q",2166,32.8038,-17.0653,,,,"PT",,
"CB03_V",2167,32.8041,-17.044,,,,"PT",,
"CB12_C",2267,32.7504,-17.0214,,,,"PT",,
"CB12_E",2269,32.7864,-17.0222,,,,"PT",,
"CB12_P",2279,32.7871,-16.9795,,,,"PT",,
"CB12_W",2286,32.7337,-16.9356,,,,"PT",,
"CB13_A",2168,32.8045,-17.0226,,,,"PT",,
"CB13_F",2290,32.8048,-17.0013,,,,"PT",,
"CB13_L",2293,32.8232,-16.9803,,,,"PT",,
"CB13_Q",2294,32.8055,-16.9586,,,,"PT",,
"CB13_R",2295,32.8235,-16.959,,,,"PT",,
"CB13_W",2297,32.8238,-16.9376,,,,"PT",,
"CB21_B",2298,32.6439,-16.9124,,,,"PT",,
"CB21_H",2303,32.6622,-16.8915,,,,"PT",,
"CB21_J",2305,32.6983,-16.8922,,,,"PT",,
"CB21_L",2306,32.6445,-16.8698,,,,"PT",,
"CB21_W",2314,32.6451,-16.8271,,,,"PT",,
"CB21_Y",2316,32.6812,-16.8279,,,,"PT",,
"CB22_U",2337,32.7891,-16.8514,,,,"PT",,
"CB23_A",2342,32.8061,-16.9159,,,,"PT",,
"CB23_B",2343,32.8242,-16.9162,,,,"PT",,
"CB23_F",2344,32.8065,-16.8945,,,,"PT",,
"CB23_G",2345,32.8245,-16.8949,,,,"PT",,
"CB23_K",2346,32.8068,-16.8732,,,,"PT",,
"CB31_C",2347,32.6635,-16.8062,,,,"PT",,
"CB31_D",2348,32.6815,-16.8065,,,,"PT",,
"CB31_E",2349,32.6995,-16.8069,,,,"PT",,
"CB31_J",2350,32.6998,-16.7856,,,,"PT",,
"CB31_P",2351,32.7001,-16.7643,,,,"PT",,
"CB32_A",2352,32.7176,-16.8073,,,,"PT",,
"CB32_G",2356,32.7359,-16.7863,,,,"PT",,
"CB32_K",2358,32.7182,-16.7646,,,,"PT",,
"CB32_R",2361,32.7365,-16.7436,,,,"PT",,
"CB42_B",2365,32.7371,-16.701,,,,"PT",,
"CB42_G",2367,32.7374,-16.6796,,,,"PT",,
"CB50_N",2371,32.5911,-16.545,,,,"PT",,
"CB50_Q",2372,32.5372,-16.5228,,,,"PT",,
"CB50_R",2373,32.5553,-16.5231,,,,"PT",,
"CB75_C",2378,33.0259,-16.3813,,,,"PT",,
"CB75_I",2381,33.0442,-16.3602,,,,"PT",,
"CB75_P",2384,33.0625,-16.339,,,,"PT",,
"CB75_Z",2386,33.0629,-16.2962,,,,"PT",,
"CB76_F",2387,33.0803,-16.3607,,,,"PT",,
"CB76_R",2390,33.0988,-16.3181,,,,"PT",,
"CERVAS / Parque Ecológico de Gouveia",27188,40.502761,-7.545753,,,,"PT",,
"Chamusca: miradouro castelo Almourol",2103,39.4588333333,-8.3845,,,,"PT",,
"Cheganças",27343,39.7071666667,-7.8881666667,,,,"PT",,
"Cidade Desportiva Monte Abraão",1533,38.7533333333,-9.2708333333,,,,"PT",,
"Cidadelhe",27273,40.9155,-7.116,,,,"PT",,
"Coimbra - Almalaguês",27499,40.1345,-8.382,,,,"PT",,
"Coimbra - Portela do Casal Novo",27500,40.1368333333,-8.378,,,,"PT",,
"Coimbra-Jardim Botânico da Universidade de Coimbra",27272,40.2145,-8.4402,,,,"PT",,
"Coimbra-Parque Verde do Mondego",27287,5,7,,,,"PT",,
"Colaride, Sintra",27569,39.7071666667,-7.8881666667,,,,"PT",,
"Constantim - QG21Q",27539,41.6205,-6.2725,,,,"PT",,
"Costa de Caparica",276,38.6373333333,-9.2293333333,,,,"PT",,
"Costa do Estoril",141,38.70162222,-9.393713889,,,,"PT",,
"Crato",2140,39.2911666667,-7.6458333333,,,,"PT",,
"Curral do Negro, Gouveia",27169,40.490294,-7.5722477,,,,"PT",,
"Custió, Parque Maia - Linha Metro Ismai",27590,1,1,,,,"PT",,
"Douro Internacional",27533,41.3231666667,-6.4263333333,,,,"PT",,
"DU02_B",2392,30.0341,-16.0268,,,,"PT",,
"DU13_S",2393,30.1436,-15.8618,,,,"PT",,
"Duas Igrejas, Miranda do Douro",27403,41.485072,-6.354686,,,,"PT",,
"Dunas de S Jacinto",110,40.67594444,-8.730883333,,,,"PT",,
"Eixo N-S, Lisboa",1780,38.710563,-9.178946,,,,"PT",,
"Entradas",26351,37.7956666667,-7.9883333333,,,,"PT",,
"Entradas - Carregueiro - Castro Verde",1700,37.7841666667,-8.0546666667,,,,"PT",,
"Ermesinde - Portagens A4",27285,41.2006666667,-8.5545,,,,"PT",,
"Ermesinde - Sta Rita",27286,41.2095,-8.547,,,,"PT",,
"Espindo - Vieira do Minho",27280,41.665,-8.0841666667,,,,"PT",,
"Estação Agronómica Nacional - Oeiras",1547,38.6941666667,-9.3146666667,,,,"PT",,
"Estarreja - Salreu - Área nº 5",1632,40.72791,-8.5825,,,,"PT",,
"Estarreja - Salreu - Percurso de Salreu",27067,40.7345,-8.5706666667,,,,"PT",,
"Estarreja - Salreu - Percurso do Rio Jardim",27062,40.7316666667,-8.568,,,,"PT",,
"Estefânia, Lisboa",189,38.731,-9.1395,,,,"PT",,
"Esteiro do Montijo",193,38.6991666667,-8.9698333333,,,,"PT",,
"Esteiro do Montijo",192,38.6993333333,-8.972,,,,"PT",,
"Estrada Exterior Circunvalação próximo I.P.O.",27592,1,1,,,,"PT",,
"Estuário do Douro - Porto",27508,1,1,,,,"PT",,
"Estuário do Mira",151,37.71740556,-8.788238889,,,,"PT",,
"Estuário do Sado - Salinas de Praias do Sado",395,38.5156666667,-8.8208333333,,,,"PT",,
"Estuário do Sado IBA",29,38.45,-8.7167,,,,"PT",,
"ETAR de Atouguia da Baleia",1740,"39.3475","-9.3371666666667","Portugal (mainland)","Atoguia da Baleia--ETAR","PT-10","PT","39.3480835","-9.3364048"
"ETAR de Ponta Delgada, SMi, Açores",330,37.7418333333,-25.6496666667,,,,"PT",,
"ETAR de Porto de Lobos, Peniche",1576,"39.348166666667","-9.3363333333333","Portugal (mainland)","Atoguia da Baleia--ETAR","PT-10","PT","39.3480835","-9.3364048"
"Évora - Canaviais",1825,38.6151666667,-7.9005,,,,"PT",,
"Falésia, Albufeira (Faro)",27096,37.087,-8.1683333333,,,,"PT",,
"Farilhão Grande",27551,39.4785,-9.5451666667,,,,"PT",,
"Faro - Ludo - Área nº 2",1697,37.0316,-7.9948,,,,"PT",,
"Faro - Ludo - Área nº 4",1699,37.0193333333,-8.0026666667,,,,"PT",,
"FD56_C (Açores)",26299,39.4213133529,-31.2457875335,,,,"PT",,
"FD56_E (Açores)",26285,39.4573391145,-31.2448833714,,,,"PT",,
"FD56_G (Açores)",26307,39.4029479678,-31.2230207821,,,,"PT",,
"FD56_J (Açores)",26286,39.4569860268,-31.2216472225,,,,"PT",,
"FD56_L (Açores)",26308,39.4025909231,-31.1998029679,,,,"PT",,
"FD56_M (Açores)",26301,39.4206034424,-31.1993395564,,,,"PT",,
"FD56_P (Açores)",26287,39.4566282995,-31.198411485,,,,"PT",,
"FD56_Q (Açores)",26315,39.3842168983,-31.1770545286,,,,"PT",,
"FD57_A (Açores)",26278,39.4753519049,-31.2444306814,,,,"PT",,
"FD57_G (Açores)",26273,39.4930110974,-31.2207294596,,,,"PT",,
"FD57_K (Açores)",26280,39.4746406373,-31.1979468244,,,,"PT",,
"FD57_M (Açores)",26268,39.5106651311,-31.197016251,,,,"PT",,
"FD57_R (Açores)",26275,39.4921666667,-31.1741666667,,,,"PT",,
"FD57_V (Açores)",26282,39.4739108003,-31.1514646361,,,,"PT",,
"FD69_B (Açores)",25825,39.6716629007,-31.1228867384,,,,"PT",,
"FD69_C (Açores)",25822,39.6896738058,-31.1223988966,,,,"PT",,
"FD69_D (Açores)",25819,39.7076846498,-31.1219106163,,,,"PT",,
"FD69_G (Açores)",25826,39.6712837343,-31.0995805435,,,,"PT",,
"FD69_H (Açores)",25823,39.6892943984,-31.0990866535,,,,"PT",,
"FD69_I (Açores)",25820,39.7073050012,-31.0985923195,,,,"PT",,
"Ferreira do Alentejo",27399,38.115,-8.3041666667,,,,"PT",,
"Ferreira do Zêzere - Carril",265,39.7515,-8.3125,,,,"PT",,
"Figueira e Barros",27415,39.0455,-7.7618333333,,,,"PT",,
"Figueiró da Serra, Gouveia",27446,40.544721,-7.489602,,,,"PT",,
"Folsas",27297,40.5451666667,-8.6733333333,,,,"PT",,
"Fornelos - Caniçada",27283,41.6805,-8.1445,,,,"PT",,
"Foros Salvaterra de Magos",1897,39.0265,-8.7413333333,,,,"PT",,
"Fortios 01",27553,39.3336666667,-7.4945,,,,"PT",,
"Foz do Almargem",27566,"37.060666666667","-8.0811666666667",,"Foz do Almargem","PT-08","PT","37.0611093","-8.0817801"
"Foz do Côa, Vila Nova de Foz Côa",1745,41.0725,-7.1101666667,,,,"PT",,
"Foz do Rio Trancão - Parque Tejo",27113,"38.796666666667","-9.0903333333333","Portugal (mainland)","Estuário do Tejo--Foz do Trancão","PT-11","PT","38.7962394","-9.0906286"
"Foz do Sizandro, Silveira",391,"39.102","-9.4008333333333","Portugal (mainland)","Foz do Sizandro","PT-11","PT","39.1034512","-9.3991846"
"Freixo",27515,39.7071666667,-7.8881666667,,,,"PT",,
"Freixo da Serra, Gouveia",27455,40.52927,-7.503517,,,,"PT",,
"Fronhas (barragem), Arganil",27421,40.246446,-8.165014,,,,"PT",,
"Funchal - Jardim do Amparo",27598,32.643,-16.9458333333,,,,"PT",,
"Funchal pelagico",27560,32.5675,-16.8993333333,,,,"PT",,
"Funchal pelagico",27559,32.5675,-16.8993333333,,,,"PT",,
"Funchal, Parque Santa Catarina",27320,32.6451666667,-16.914,,,,"PT",,
"Gâmbia, Setúbal",27086,38.53689,-8.781509,,,,"PT",,
"Gavieira, Arcos de Valdevez",27514,41.969617,-8.223393,,,,"PT",,
"Gouveia (centro)",27409,40.49283,-7.593417,,,,"PT",,
"Guia-Boca do Inferno, Cascais",266,"38.695333333333","-9.4413333333333",,"PN Sintra-Cascais--Boca do Inferno","PT-11","PT","38.6905847","-9.4297184"
"Herdade da Abegoaria, Mourão",27324,38.3523333333,-7.288,,,,"PT",,
"Herdade do Esporão",135,38.37886389,-7.560141667,,,,"PT",,
"Hortas/Ribeira das Enguias",145,"38.75441111","-8.924480556","Portugal (mainland)","Estuário do Tejo--Ribeira das Enguias","PT-15","PT","38.7478581","-8.9222717"
"Ilha da Morraceira",2025,"40.134333333333","-8.8275","Portugal (mainland)","IBA Estuário do Mondego--Ilha da Murraceira","PT-06","PT","40.1322973","-8.8281155"
"ilha das murraceiras",27292,"40.137333333333","-8.8338333333333","Portugal (mainland)","IBA Estuário do Mondego--Ilha da Murraceira","PT-06","PT","40.1322973","-8.8281155"
"Ilha do Corvo",1834,39.6956666667,-31.1076666667,,,,"PT",,
"Jamor - Cruz Quebrada",27389,"38.707333333333","-9.2545",,"Complexo Desportivo Nacional do Jamor","PT-11","PT","38.704301","-9.2553314"
"Jamor - Cruz Quebrada",27391,38.7073333333,"-9.2545",,,,"PT",,
"Jardim Botânico, Universidade de Lisboa",27215,"38.717666666667","-9.1513333333333","Portugal (mainland)","Jardim Botânico da Universidade de Lisboa","PT-11","PT","38.7183026","-9.1488148"
"Jardim Calouste Gulbenkian, Lisboa",325,"38.736333333333","-9.1536666666667","Portugal (mainland)","Jardins da Fundação Calouste Gulbenkian","PT-11","PT","38.7372396","-9.1533645"
"Jardim do Cabeço das Rolas, Lisboa",1605,"38.760312","-9.098246","Portugal (mainland)","Jardim do Cabeço das Rolas","PT-11","PT","38.7603838","-9.0982827"
"Jardim Palácio Nacional de Belém e Jardim Botânico Tropica",1799,38.69746,-9.2009,,,,"PT",,
"Jardim Urbano da Costa da Caparica",27183,38.649313,-9.239008,,,,"PT",,
"Jardins do Hotel do Caramulo",27461,40.57,-8.1731666667,,,,"PT",,
"Jardins Palácio Nacional Queluz, Queluz",1781,38.755991,-9.260745,,,,"PT",,
"José Heitor",27594,39.7071666667,-7.8881666667,,,,"PT",,
"Juizo",27274,40.8776666667,-7.1403333333,,,,"PT",,
"Juncal do Campo, Castelo Branco",1795,39.919743,-7.56958,,,,"PT",,
"Lagarinhos, Gouveia",27424,40.488036,-7.669617,,,,"PT",,
"Lagoa azul - Sintra",1583,38.7686666667,-9.397,,,,"PT",,
"Lagoa Azul, São Miguel",332,"37.865666666667","-25.783166666667",,"Lagoa Azul","PT-20","PT","37.8604888","-25.7848263"
"Lagoa Branca",27540,38.6855,-28.2128333333,,,,"PT",,
"Lagoa da Salgueira",27393,40.2966666667,-8.7838333333,,,,"PT",,
"Lagoa da Vela",27392,40.267,-8.7913333333,,,,"PT",,
"Lagoa das Furnas, SMi, Açores",160,"37.75416111","-25.33586944",,"Lagoa das Furnas","PT-20","PT","37.7559078","-25.3308204"
"Lagoa de Albufeira",1535,"38.5105","-9.1786666666667",,"Lagoa de Albufeira--Lagoa da Estacada, IBA Lagoa Pequena e Lagoa Grande","PT-15","PT","38.5166083","-9.1671896"
"Lagoa de Albufeira - Lagoa pequena",1534,"38.523666666667","-9.143","Portugal (mainland)","Lagoa de Albufeira--IBA Lagoa Pequena","PT-15","PT","38.5184892","-9.162941"
"Lagoa de Albufeira (Lagoas Grande, Pequena e Estacada)",273,"38.526166666667","-9.1411666666667",,"Lagoa de Albufeira--Lagoa da Estacada, IBA Lagoa Pequena e Lagoa Grande","PT-15","PT","38.5166083","-9.1671896"
"Lagoa de Melides",329,38.1323333333,-8.7865,,,,"PT",,
"Lagoa de Mira",27228,40.4416666667,-8.7553333333,,,,"PT",,
"Lagoa de Óbidos",1575,"39.388666666667","-9.2218333333333",,"Lagoa de Óbidos","PT-10","PT","39.4045003","-9.206672"
"Lagoa de Óbidos, lado sul",1625,"39.396666666667","-9.2138333333333",,"Lagoa de Óbidos","PT-10","PT","39.4045003","-9.206672"
"Lagoa de Santo André",202,38.094,-8.7841666667,,,,"PT",,
"Lagoa dos Patos",136,"38.16163056","-8.06145",,"Lagoa dos Patos","PT-02","PT","38.161096","-8.0620122"
"Lagoa dos Patos",228,38.1588333333,-8.0678333333,,,,"PT",,
"Lagoa dos Salgados",156,"37.09583611","-8.330897222","Portugal (mainland)","IBA Lagoa dos Salgados","PT-08","PT","37.09469","-8.3313704"
"Lagoa dos Salgados IBA",45,"38.51666667","-9.15","Portugal (mainland)","IBA Lagoa dos Salgados","PT-08","PT","37.09469","-8.3313704"
"Lagoa Pequena IBA",46,"38.51666667","-9.15",,,,"PT",,
"Lagoacho (barragem), Sabugueiro, Seia",27435,40.385477,-7.617307,,,,"PT",,
"Lagoas da U. Aveiro",27599,40.636,-8.6588333333,,,,"PT",,
"Lamas de Mouro, Melgaço",381,"42.0425","-8.2008333333333",,"PN Peneda-Gerês--Lamas de Mouro","PT-16","PT","42.0430463","-8.200779"
"Lamego - cidade",27529,41.0966666667,-7.8123333333,,,,"PT",,
"Lardosa, Castelo Branco",27408,39.995204,-7.441585,,,,"PT",,
"Lavadores - Vila Nova de Gaia",27314,41.131657,-8.670322,,,,"PT",,
"Lezíria Grande de Vila Franca de Xira, Estuário do Tejo",288,"38.888166666667","-8.9391666666667","Portugal (mainland)","Estuário do Tejo--Lezí­ria Grande de Vila Franca de Xira","PT-11","PT","38.8915673","-8.9387512"
"LH47_B (Açores)",25581,38.5905192629,-28.8244919532,,,,"PT",,
"LH47_H (Açores)",25587,38.6088897985,-28.8019890594,,,,"PT",,
"LH47_L (Açores)",25595,38.5912261363,-28.7785846989,,,,"PT",,
"LH47_Q (Açores)",25599,38.5735574677,-28.7551917994,,,,"PT",,
"LH47_S (Açores)",25622,38.609588121,-28.7560695391,,,,"PT",,
"LH47_W (Açores)",25594,38.5919150128,-28.7326758551,,,,"PT",,
"LH56_D (Açores)",26111,38.5382051465,-28.7084403458,,,,"PT",,
"LH56_J (Açores)",26117,38.5565538199,-28.6859228654,,,,"PT",,
"LH56_N (Açores)",26119,38.5388657527,-28.6625635408,,,,"PT",,
"LH56_S (Açores)",26126,38.5211727166,-28.6392156503,,,,"PT",,
"LH56_U (Açores)",26122,38.5572058606,-28.6400338746,,,,"PT",,
"LH56_Y (Açores)",26109,38.5395083918,-28.6166852529,,,,"PT",,
"LH66_R (Açores)",26033,38.5047045129,-28.5241640305,,,,"PT",,
"LH66_T (Açores)",26010,38.5407397625,-28.5249243921,,,,"PT",,
"LH75_H (Açores)",25632,38.4335062948,-28.4539258212,,,,"PT",,
"LH75_J (Açores)",25583,38.4695431352,-28.4546493053,,,,"PT",,
"LH75_L (Açores)",25597,38.4157696489,-28.4306624128,,,,"PT",,
"LH75_P (Açores)",25580,38.4698255403,-28.4317300777,,,,"PT",,
"LH75_U (Açores)",25592,38.4701034631,-28.4088105318,,,,"PT",,
"LH75_Y (Açores)",25624,38.4523579776,-28.3855458618,,,,"PT",,
"LH76_E (Açores)",25634,38.5593464048,-28.4794111475,,,,"PT",,
"LH76_P (Açores)",25579,38.5599175254,-28.4335158915,,,,"PT",,
"LH85_D (Açores)",25638,38.4526267628,-28.3626313925,,,,"PT",,
"Linhares, Celorico da Beira",27413,40.541524,-7.461166,,,,"PT",,
"Lisboa",397,38.7368333333,-9.1185,,,,"PT",,
"Lisboa",27313,38.721948,-9.135246,,,,"PT",,
"Lisboa",27064,38.6926666667,-9.224,,,,"PT",,
"Lisboa",398,38.7368333333,-9.1185,,,,"PT",,
"Lisboa - aeroporto",1428,38.7711666667,-9.1355,,,,"PT",,
"Lisboa - Av. João XXI",1666,38.7421666667,-9.1408333333,,,,"PT",,
"Lisboa - Museu Nacional de História Natural",364,"38.717833333333","-9.1506666666667","Portugal (mainland)","Jardim Botânico da Universidade de Lisboa","PT-11","PT","38.7183026","-9.1488148"
"Lisboa (Monsanto)",27333,38.7701666667,-9.1803333333,,,,"PT",,
"Lisboa (Ponte Vasco da Gama)",27332,38.9008333333,-9.131,,,,"PT",,
"Lisboa, Av. Lusíada",27355,38.7498333333,-9.1765,,,,"PT",,
"Loulé - Estuário de São Lourenço - Área nº 1",1714,"37.024","-8.0171666666667",,"PN Ria Formosa--Quinta do Lago","PT-08","PT","37.0246316","-8.0118258"
"Loures",27434,38.8185,-9.157,,,,"PT",,
"Ludo",220,37.034,-7.9861666667,,,,"PT",,
"Ludo/Quinta do Lago",157,"37.01913333","-8.014366667",,"PN Ria Formosa--Quinta do Lago","PT-08","PT","37.0246316","-8.0118258"
"Luso, Serra do Buçaco, Mata do Buçaco",27501,40.3745,-8.3723333333,,,,"PT",,
"Malhão, Gouveia",27436,40.45059,-7.560651,,,,"PT",,
"Mangualde da Serra, Gouveia",27426,40.464167,-7.61562,,,,"PT",,
"Maranhão",27369,39.0083333333,-7.9991666667,,,,"PT",,
"Martinhal",1990,"37.021333333333","-8.928",,"PN Costa Vicentina e Sudoeste Alentejano--Martinhal","PT-08","PT","37.0205671","-8.9285481"
"Marvão - Galegos - Área nº 1",1724,39.35555,-7.31361,,,,"PT",,
"Mata da Machada, Barreiro",1811,38.609627,-9.0455353,,,,"PT",,
"Mata da margaraça (Serra do Açor)",1766,40.2166666667,-7.9185,,,,"PT",,
"Matosinhos-Praia Moderna",27315,41.1774557,-8.6917102,,,,"PT",,
"MC58",688,38.7106,-9.51897,,,,"PT",,
"MC58_Y",27016,38.7272465819,-9.4716905853,,,,"PT",,
"MC58_Z",27015,38.7452689155,-9.4718091429,,,,"PT",,
"MC59",709,38.8007,-9.51962,,,,"PT",,
"MC59_V",26924,38.7632911931,-9.4719278067,,,,"PT",,
"MC68",689,38.711,-9.40396,,,,"PT",,
"MC68_C",2415,38.708,-9.44728,,,,"PT",,
"MC68_E",2417,38.744,-9.44766,,,,"PT",,
"MC68_G",2418,38.6901,-9.42411,,,,"PT",,
"MC68_J",2421,38.7441,-9.42466,,,,"PT",,
"MC68_M",2423,38.7082,-9.4013,,,,"PT",,
"MC68_N",2424,38.7263,-9.40148,,,,"PT",,
"MC68_S",2427,38.7084,-9.37832,,,,"PT",,
"MC68_U",2429,38.7444,-9.37866,,,,"PT",,
"MC68_W",2430,38.6905,-9.35516,,,,"PT",,
"MC68_X",2431,38.7085,-9.35533,,,,"PT",,
"MC69",710,38.8011,-9.40447,,,,"PT",,
"MC69_A",2434,38.762,-9.44785,,,,"PT",,
"MC69_E",2438,38.834,-9.44861,,,,"PT",,
"MC69_I",2442,38.8162,-9.42539,,,,"PT",,
"MC69_L",2445,38.7803,-9.40201,,,,"PT",,
"MC69_P",2448,38.8343,-9.40255,,,,"PT",,
"MC69_T",2452,38.8165,-9.37935,,,,"PT",,
"MC78",690,38.7114,-9.28894,,,,"PT",,
"MC78_A",2459,38.6726,-9.33202,,,,"PT",,
"MC78_B",2460,38.6906,-9.33218,,,,"PT",,
"MC78_D",2462,38.7267,-9.33249,,,,"PT",,
"MC78_F",2464,38.6727,-9.30904,,,,"PT",,
"MC78_G",2465,38.6907,-9.30919,,,,"PT",,
"MC78_H",2466,38.7088,-9.30935,,,,"PT",,
"MC78_I",2467,38.7268,-9.3095,,,,"PT",,
"MC78_M",2471,38.7089,-9.28636,,,,"PT",,
"MC78_N",2472,38.7269,-9.2865,,,,"PT",,
"MC78_P",2473,38.7449,-9.28665,,,,"PT",,
"MC78_S",2476,38.709,-9.26336,,,,"PT",,
"MC78_U",2478,38.745,-9.26365,,,,"PT",,
"MC78_X",2481,38.7091,-9.24037,,,,"PT",,
"MC78_Z",2483,38.7451,-9.24065,,,,"PT",,
"MC79_B",2485,38.7807,-9.33297,,,,"PT",,
"MC79_F",2489,38.7628,-9.30981,,,,"PT",,
"MC79_G",2490,38.7808,-9.30996,,,,"PT",,
"MC79_K",2494,38.7629,-9.2868,,,,"PT",,
"MC79_Q",2499,38.763,-9.26379,,,,"PT",,
"MC79_V",2504,38.7631,-9.24078,,,,"PT",,
"MC85_B",2510,38.4191,-9.21745,,,,"PT",,
"MC86",651,38.5313,-9.17349,,,,"PT",,
"MC86_J",2543,38.5633,-9.19572,,,,"PT",,
"MC86_R",2550,38.5095,-9.14942,,,,"PT",,
"MC86_S",2551,38.5275,-9.14956,,,,"PT",,
"MC87",670,38.6215,-9.17371,,,,"PT",,
"MC87_G",2565,38.5993,-9.19601,,,,"PT",,
"MC87_P",2573,38.6535,-9.17348,,,,"PT",,
"MC87_Q",2574,38.5815,-9.14996,,,,"PT",,
"MC87_T",2577,38.6356,-9.15037,,,,"PT",,
"MC87_V",2579,38.5817,-9.12701,,,,"PT",,
"MC87_W",2580,38.5997,-9.12714,,,,"PT",,
"MC87_X",2581,38.6177,-9.12727,,,,"PT",,
"MC87_Y",2582,38.6357,-9.1274,,,,"PT",,
"MC87_Z",2583,38.6537,-9.12753,,,,"PT",,
"MC88",691,38.7116,-9.17393,,,,"PT",,
"MC88_B",2585,38.6912,-9.21725,,,,"PT",,
"MC88_D",2587,38.7272,-9.21751,,,,"PT",,
"MC88_F",2589,38.6733,-9.19414,,,,"PT",,
"MC88_G",2590,38.6913,-9.19427,,,,"PT",,
"MC88_H",2591,38.7093,-9.19439,,,,"PT",,
"MC88_J",2593,38.7453,-9.19464,,,,"PT",,
"MC88_M",2596,38.7094,-9.1714,,,,"PT",,
"MC88_N",2597,38.7274,-9.17152,,,,"PT",,
"MC88_P",2598,38.7454,-9.17164,,,,"PT",,
"MC88_S",2601,38.7095,-9.14841,,,,"PT",,
"MC88_T",2602,38.7275,-9.14852,,,,"PT",,
"MC88_U",2603,38.7455,-9.14864,,,,"PT",,
"MC88_Z",2608,38.7456,-9.12563,,,,"PT",,
"MC89_B",2610,38.7813,-9.21791,,,,"PT",,
"MC89_D",2612,38.8173,-9.21817,,,,"PT",,
"MC89_J",2618,38.8354,-9.19527,,,,"PT",,
"MC89_K",2619,38.7634,-9.17176,,,,"PT",,
"MC89_L",2620,38.7815,-9.17188,,,,"PT",,
"MC89_Q",2624,38.7635,-9.14875,,,,"PT",,
"MC89_T",2627,38.8176,-9.14909,,,,"PT",,
"MC89_U",2628,38.8356,-9.14921,,,,"PT",,
"MC89_V",2629,38.7636,-9.12574,,,,"PT",,
"MC96_B",2660,38.5097,-9.10357,,,,"PT",,
"MC96_F",2664,38.4918,-9.08052,,,,"PT",,
"MC96_I",2667,38.5458,-9.08088,,,,"PT",,
"MC96_Q",2674,38.4919,-9.03468,,,,"PT",,
"MC96_S",2676,38.528,-9.03489,,,,"PT",,
"MC96_W",2680,38.51,-9.01186,,,,"PT",,
"MC97",671,38.6216,-9.05884,,,,"PT",,
"MC97_B",2685,38.5998,-9.10419,,,,"PT",,
"MC97_C",2686,38.6178,-9.10431,,,,"PT",,
"MC97_D",2687,38.6358,-9.10444,,,,"PT",,
"MC97_E",2688,38.6538,-9.10456,,,,"PT",,
"MC97_H",2691,38.6179,-9.08135,,,,"PT",,
"MC97_I",2692,38.6359,-9.08147,,,,"PT",,
"MC97_L",2695,38.6,-9.05827,,,,"PT",,
"MC97_S",2701,38.6181,-9.03542,,,,"PT",,
"MC97_U",2703,38.6541,-9.03564,,,,"PT",,
"MC97_Y",2707,38.6361,-9.01256,,,,"PT",,
"MC99_A",2734,38.7637,-9.10273,,,,"PT",,
"MC99_F",2739,38.7638,-9.07972,,,,"PT",,
"MC99_H",2741,38.7998,-9.07992,,,,"PT",,
"MD60_R",2795,38.8705,-9.37986,,,,"PT",,
"MD60_W",2800,38.8706,-9.35682,,,,"PT",,
"MD61_H",2811,38.9783,-9.42706,,,,"PT",,
"MD61_J",2813,39.0143,-9.42743,,,,"PT",,
"MD61_K",2814,38.9424,-9.40362,,,,"PT",,
"MD61_N",2817,38.9964,-9.40416,,,,"PT",,
"MD61_S",2821,38.9786,-9.38091,,,,"PT",,
"MD61_Z",2828,39.0147,-9.35816,,,,"PT",,
"MD62_K",2839,39.0325,-9.40452,,,,"PT",,
"MD62_M",2841,39.0685,-9.40489,,,,"PT",,
"MD62_P",2843,39.1045,-9.40525,,,,"PT",,
"MD62_R",2845,39.0506,-9.3816,,,,"PT",,
"MD62_U",2848,39.1047,-9.38213,,,,"PT",,
"MD62_V",2849,39.0327,-9.35833,,,,"PT",,
"MD62_Y",2852,39.0868,-9.35884,,,,"PT",,
"MD63",798,39.1616,-9.40652,,,,"PT",,
"MD63_Q",26916,39.1240648239,-9.3817815357,,,,"PT",,
"MD63_R",26907,39.1420861412,-9.3818788626,,,,"PT",,
"MD63_W",26921,39.1421596701,-9.3587372357,,,,"PT",,
"MD63_Y",26904,39.1782022303,-9.3589203402,,,,"PT",,
"MD65_N",2864,39.3568,-9.40487,,,,"PT",,
"MD65_T",2868,39.3569,-9.38167,,,,"PT",,
"MD65_U",2869,39.3749,-9.38183,,,,"PT",,
"MD65_X",2871,39.339,-9.35831,,,,"PT",,
"MD65_Y",2872,39.357,-9.35847,,,,"PT",,
"MD70_C",2876,38.8888,-9.33394,,,,"PT",,
"MD70_G",2880,38.8709,-9.31074,,,,"PT",,
"MD70_I",2882,38.9069,-9.31105,,,,"PT",,
"MD70_J",2883,38.9249,-9.3112,,,,"PT",,
"MD70_K",2884,38.853,-9.28754,,,,"PT",,
"MD70_M",2886,38.889,-9.28785,,,,"PT",,
"MD70_V",2894,38.8532,-9.24147,,,,"PT",,
"MD70_X",2896,38.8892,-9.24175,,,,"PT",,
"MD71_A",2899,38.9428,-9.33443,,,,"PT",,
"MD71_D",2902,38.9968,-9.33491,,,,"PT",,
"MD71_G",2905,38.9609,-9.31152,,,,"PT",,
"MD71_J",2908,39.015,-9.31199,,,,"PT",,
"MD71_L",2910,38.9611,-9.28845,,,,"PT",,
"MD71_N",2912,38.9971,-9.28875,,,,"PT",,
"MD71_W",2920,38.9613,-9.2423,,,,"PT",,
"MD71_Z",2923,39.0153,-9.24272,,,,"PT",,
"MD72_B",2925,39.0509,-9.3354,,,,"PT",,
"MD72_J",2933,39.105,-9.31278,,,,"PT",,
"MD72_K",2934,39.0331,-9.28905,,,,"PT",,
"MD72_M",2936,39.0691,-9.28935,,,,"PT",,
"MD72_U",2943,39.1053,-9.26654,,,,"PT",,
"MD72_W",2945,39.0514,-9.243,,,,"PT",,
"MD73_A",2949,39.1229,-9.33606,,,,"PT",,
"MD73_D",2952,39.177,-9.33655,,,,"PT",,
"MD73_I",2957,39.1771,-9.31341,,,,"PT",,
"MD73_L",2960,39.1412,-9.28996,,,,"PT",,
"MD73_P",2963,39.1952,-9.29042,,,,"PT",,
"MD73_Q",2964,39.1233,-9.26669,,,,"PT",,
"MD73_T",2967,39.1773,-9.26713,,,,"PT",,
"MD73_X",2971,39.1594,-9.24384,,,,"PT",,
"MD74",821,39.252,-9.29115,,,,"PT",,
"MD74_A",2974,39.213,-9.33688,,,,"PT",,
"MD74_C",2976,39.249,-9.33721,,,,"PT",,
"MD74_E",2978,39.285,-9.33754,,,,"PT",,
"MD74_N",2987,39.2673,-9.29104,,,,"PT",,
"MD74_Q",2989,39.2134,-9.26742,,,,"PT",,
"MD74_U",2993,39.2854,-9.26801,,,,"PT",,
"MD75_B",3000,39.3211,-9.33497,,,,"PT",,
"MD75_D",3002,39.3571,-9.33527,,,,"PT",,
"MD75_H",3006,39.3393,-9.31192,,,,"PT",,
"MD75_J",3008,39.3753,-9.31221,,,,"PT",,
"MD75_V",3019,39.3035,-9.24208,,,,"PT",,
"MD75_Z",3023,39.3756,-9.24259,,,,"PT",,
"MD80_D",3027,38.9074,-9.21883,,,,"PT",,
"MD80_F",3029,38.8534,-9.1954,,,,"PT",,
"MD80_G",3030,38.8714,-9.19552,,,,"PT",,
"MD80_H",3031,38.8894,-9.19565,,,,"PT",,
"MD80_N",3037,38.9076,-9.17272,,,,"PT",,
"MD80_Q",3039,38.8536,-9.14932,,,,"PT",,
"MD80_S",3041,38.8896,-9.14955,,,,"PT",,
"MD80_V",3044,38.8537,-9.12628,,,,"PT",,
"MD81_A",3049,38.9434,-9.2191,,,,"PT",,
"MD81_E",3053,39.0154,-9.21963,,,,"PT",,
"MD81_I",3057,38.9975,-9.19641,,,,"PT",,
"MD81_L",3060,38.9616,-9.17309,,,,"PT",,
"MD81_S",3066,38.9797,-9.15013,,,,"PT",,
"MD81_Z",3073,39.0158,-9.12727,,,,"PT",,
"MD82_A",3074,39.0335,-9.21976,,,,"PT",,
"MD82_E",3078,39.1055,-9.2203,,,,"PT",,
"MD82_G",3080,39.0516,-9.1968,,,,"PT",,
"MD82_J",3083,39.1056,-9.19718,,,,"PT",,
"MD82_L",3085,39.0517,-9.1737,,,,"PT",,
"MD82_M",3086,39.0697,-9.17382,,,,"PT",,
"MD82_S",3091,39.0698,-9.15071,,,,"PT",,
"MD83_C",3101,39.1595,-9.22071,,,,"PT",,
"MD83_E",3103,39.1956,-9.22098,,,,"PT",,
"MD83_K",3109,39.1237,-9.17418,,,,"PT",,
"MD83_L",3110,39.1417,-9.17431,,,,"PT",,
"MD83_N",3112,39.1778,-9.17455,,,,"PT",,
"MD83_R",3115,39.1418,-9.15118,,,,"PT",,
"MD83_S",3116,39.1598,-9.15129,,,,"PT",,
"MD83_T",3117,39.1778,-9.15141,,,,"PT",,
"MD83_X",3121,39.1599,-9.12816,,,,"PT",,
"MD84_Z",3148,39.286,-9.12894,,,,"PT",,
"MD86_A",3174,39.3937,-9.2195,,,,"PT",,
"MD86_C",3176,39.4297,-9.21975,,,,"PT",,
"MD86_F",3179,39.3938,-9.19629,,,,"PT",,
"MD86_J",3183,39.4658,-9.19676,,,,"PT",,
"MD86_K",3184,39.3939,-9.17308,,,,"PT",,
"MD86_U",3193,39.466,-9.15028,,,,"PT",,
"MD86_V",3194,39.394,-9.12665,,,,"PT",,
"MD91_B",3250,38.9619,-9.10387,,,,"PT",,
"MD91_F",3254,38.9439,-9.0807,,,,"PT",,
"MD91_J",3258,39.016,-9.08109,,,,"PT",,
"MD91_Q",3264,38.9441,-9.03456,,,,"PT",,
"MD91_T",3267,38.9981,-9.03482,,,,"PT",,
"MD91_Z",3273,39.0162,-9.01182,,,,"PT",,
"MD92_A",3274,39.0339,-9.10428,,,,"PT",,
"MD92_E",3278,39.106,-9.1047,,,,"PT",,
"MD92_G",3280,39.052,-9.08129,,,,"PT",,
"MD92_K",3284,39.0341,-9.05809,,,,"PT",,
"MD92_W",3295,39.0522,-9.01198,,,,"PT",,
"MD92_Z",3298,39.1063,-9.01222,,,,"PT",,
"MD93_N",3312,39.1782,-9.05884,,,,"PT",,
"MD95_D",3352,39.3581,-9.10325,,,,"PT",,
"MD95_G",3355,39.3221,-9.07987,,,,"PT",,
"MD95_J",3358,39.3762,-9.08013,,,,"PT",,
"MD95_M",3361,39.3402,-9.05676,,,,"PT",,
"MD95_U",3368,39.3763,-9.03371,,,,"PT",,
"MD95_V",3369,39.3043,-9.01023,,,,"PT",,
"MD97_U",3418,39.5564,-9.03446,,,,"PT",,
"MD97_Z",3423,39.5565,-9.0112,,,,"PT",,
"MD98",895,39.6128,-9.05967,,,,"PT",,
"MD98_F",3429,39.5743,-9.08109,,,,"PT",,
"MD98_H",3431,39.6103,-9.08127,,,,"PT",,
"MD98_T",3442,39.6285,-9.03477,,,,"PT",,
"MD98_X",3446,39.6105,-9.0114,,,,"PT",,
"MD98_Z",3448,39.6465,-9.01154,,,,"PT",,
"MD99_W",3470,39.6826,-9.01169,,,,"PT",,
"Mêda",27275,40.952,-7.2426666667,,,,"PT",,
"Melo, Gouveia",27441,40.524254,-7.533327,,,,"PT",,
"Mem Martins, Sintra",1638,38.7878333333,-9.3511666667,,,,"PT",,
"Mertola",2126,"37.649","-7.6683333333333",,"PN Vale do Guadiana--Mértola","PT-02","PT","37.6404029","-7.6615477"
"Mértola",1772,"37.636333333333","-7.6645",,"PN Vale do Guadiana--Mértola","PT-02","PT","37.6404029","-7.6615477"
"Meruje - Serra do Caramulo",27462,40.5951666667,-8.0803333333,,,,"PT",,
"Mesão Frio",27278,41.1583333333,-7.882,,,,"PT",,
"Mexilhoeira grande (rocha delicada - Quinta da Rocha)",27354,37.1323333333,-8.6146666667,,,,"PT",,
"MH05_B (Açores)",25922,38.4190266858,-28.1329074081,,,,"PT",,
"MH05_H (Açores)",25959,38.4372668213,-28.1102771947,,,,"PT",,
"MH05_L (Açores)",25945,38.4194606394,-28.0870948942,,,,"PT",,
"MH05_Q (Açores)",25955,38.4016496514,-28.0639239713,,,,"PT",,
"MH05_S (Açores)",25968,38.4376920955,-28.0644528105,,,,"PT",,
"MH05_W (Açores)",25978,38.4198766883,-28.0412814151,,,,"PT",,
"MH78_A (Açores)",25847,38.67636606,-27.332238551,,,,"PT",,
"MH78_N (Açores)",25834,38.7305573551,-27.2864702324,,,,"PT",,
"MH78_T (Açores)",25835,38.7306114715,-27.2634608306,,,,"PT",,
"MH88_C (Açores)",25557,38.7126828426,-27.2173872439,,,,"PT",,
"MH88_K (Açores)",25543,38.676712509,-27.1712936394,,,,"PT",,
"MH88_M (Açores)",25559,38.7127593271,-27.1713796298,,,,"PT",,
"MH88_R (Açores)",25555,38.6947673795,-27.1483385217,,,,"PT",,
"MH88_V (Açores)",25539,38.6767708161,-27.1253089557,,,,"PT",,
"MH88_X (Açores)",25540,38.7128177089,-27.1253718617,,,,"PT",,
"MH98_B (Açores)",25892,38.6948166784,-27.1023422395,,,,"PT",,
"MH98_D (Açores)",25903,38.7308634885,-27.1023936492,,,,"PT",,
"MH98_F (Açores)",25901,38.6768110436,-27.0793241596,,,,"PT",,
"MH98_J (Açores)",25888,38.7489047096,-27.0794038737,,,,"PT",,
"MH98_L (Açores)",25904,38.6948478861,-27.0563458654,,,,"PT",,
"MH98_N (Açores)",25895,38.7308947362,-27.0563741698,,,,"PT",,
"Mira Serra, Gouveia",27439,40.503722,-7.604358,,,,"PT",,
"Miranda do Douro",27534,41.4931666667,-6.273,,,,"PT",,
"Mirandela",27489,41.4961666667,-7.185,,,,"PT",,
"Mitrena, Setúbal",27271,38.4886666667,-8.8061666667,,,,"PT",,
"MJ02_S (Açores)",26151,39.0683978246,-28.073862255,,,,"PT",,
"MJ02_V (Açores)",26152,39.0325697043,-28.0502133373,,,,"PT",,
"MJ12_C (Açores)",26154,39.0688144125,-28.0276320196,,,,"PT",,
"MJ12_I (Açores)",26134,39.0870353616,-28.0047721103,,,,"PT",,
"MJ12_K (Açores)",26145,39.0331732007,-27.9809021508,,,,"PT",,
"MJ12_L (Açores)",26142,39.0511929673,-27.9811513875,,,,"PT",,
"Moimenta da Serra, Gouveia",27425,40.473866,-7.643325,,,,"PT",,
"Moinho da Mourisca - RNES",1545,38.5283333333,-8.8033333333,,,,"PT",,
"Molhe-Leste, Peniche",235,39.3506666667,-9.369,,,,"PT",,
"Monforte",1720,39.055,-7.4406666667,,,,"PT",,
"Monfortinho",27267,40.0001666667,-6.9356666667,,,,"PT",,
"Montalvão",2160,39.5936666667,-7.524,,,,"PT",,
"Monte da Atalaia, no lugar de Monte Fildalgo, Freguesia Perais, município Castelo Branco",27492,39.6671666667,-7.549,,,,"PT",,
"Monte da Fonte Cigana",27383,38.7765,-7.5675,,,,"PT",,
"Monte Funchal",27555,32.6681666667,-16.8983333333,,,,"PT",,
"Monte Ribeiro",27357,38.4036666667,-8.07,,,,"PT",,
"Monte, Murtosa",275,40.751,-8.6446666667,,,,"PT",,
"Montemor-o-Velho",27420,"40.175","-8.6845",,"IBA Paul do Taipal","PT-06","PT","40.1803438","-8.6874084"
"Montesinho",104,41.89205556,-6.838988889,,,,"PT",,
"Mourão (Barzeco)",27573,38.3678333333,-7.3536666667,,,,"PT",,
"Mourão, Moura e Barrancos IBA",56,38.13333333,-7.166666667,,,,"PT",,
"Murça, V.N.Foz Côa",27437,41.1005,-7.2321666667,,,,"PT",,
"Muro, Trofa",27513,41.286331,-8.602144,,,,"PT",,
"Murtosa - Reserva Natural das Dunas de São Jacinto - Pateira - Área nº 1",1770,40.68831,-8.72652,,,,"PT",,
"NA09_D",3477,37.0166,-8.98967,,,,"PT",,
"NA09_J",3483,37.0346,-8.96714,,,,"PT",,
"NA09_M",3486,36.9985,-8.94479,,,,"PT",,
"NA09_P",3488,37.0345,-8.94466,,,,"PT",,
"NA09_S",3491,36.9984,-8.92232,,,,"PT",,
"NA09_T",3492,37.0165,-8.92225,,,,"PT",,
"NA09_Z",3498,37.0344,-8.8997,,,,"PT",,
"NA89",401,36.9954,-8.04607,,,,"PT",,
"NA99",402,36.9945,-7.93371,,,,"PT",,
"NA99_C",3499,36.993235,-7.977583,,,,"PT",,
"NA99_D",3500,37.01126,-7.977341,,,,"PT",,
"NA99_E",3501,37.0292,-7.97435,,,,"PT",,
"NA99_I",26404,37.0110646292,-7.9548643478,,,,"PT",,
"NA99_J",3504,37.029,-7.95187,,,,"PT",,
"NA99_Y",3511,37.0106,-7.88461,,,,"PT",,
"Nabais, Gouveia",27430,40.520721,-7.561223,,,,"PT",,
"NB00_F",3517,37.0526,-8.96707,,,,"PT",,
"NB00_M",3524,37.0886,-8.94446,,,,"PT",,
"NB00_R",3528,37.0705,-8.92204,,,,"PT",,
"NB00_U",3531,37.1246,-8.92182,,,,"PT",,
"NB00_V",3532,37.0524,-8.89963,,,,"PT",,
"NB00_Y",3535,37.1065,-8.8994,,,,"PT",,
"NB10",406,37.0893,-8.83252,,,,"PT",,
"NB11_B",3563,37.1605,-8.87665,,,,"PT",,
"NB11_C",3564,37.1785,-8.87657,,,,"PT",,
"NB11_D",3565,37.1965,-8.87649,,,,"PT",,
"NB11_G",3568,37.1604,-8.85413,,,,"PT",,
"NB11_J",3571,37.2145,-8.85387,,,,"PT",,
"NB11_N",3575,37.1964,-8.83144,,,,"PT",,
"NB11_P",3576,37.2144,-8.83134,,,,"PT",,
"NB11_R",3578,37.1603,-8.80911,,,,"PT",,
"NB11_U",3581,37.2143,-8.80881,,,,"PT",,
"NB11_V",3582,37.1422,-8.78669,,,,"PT",,
"NB11_Y",3585,37.1962,-8.78638,,,,"PT",,
"NB13_F",3617,37.3226,-8.85335,,,,"PT",,
"NB13_V",3632,37.3224,-8.78566,,,,"PT",,
"NB15_T",3680,37.5567,-8.80695,,,,"PT",,
"NB15_U",3681,37.5747,-8.80686,,,,"PT",,
"NB15_V",3682,37.5026,-8.78463,,,,"PT",,
"NB15_W",3683,37.5206,-8.78453,,,,"PT",,
"NB15_X",3684,37.5386,-8.78442,,,,"PT",,
"NB15_Z",3686,37.5747,-8.78422,,,,"PT",,
"NB16_T",3705,37.6468,-8.80647,,,,"PT",,
"NB16_Y",3710,37.6467,-8.7838,,,,"PT",,
"NB17",500,37.7202,-8.83111,,,,"PT",,
"NB20",407,37.0891,-8.72001,,,,"PT",,
"NB20_C",3789,37.088,-8.76451,,,,"PT",,
"NB20_E",3791,37.1241,-8.76429,,,,"PT",,
"NB20_I",3795,37.106,-8.7419,,,,"PT",,
"NB20_P",3801,37.1239,-8.71928,,,,"PT",,
"NB20_S",3804,37.0878,-8.69703,,,,"PT",,
"NB20_W",3808,37.0696,-8.67466,,,,"PT",,
"NB20_X",3809,37.0877,-8.67454,,,,"PT",,
"NB20_Y",3810,37.1057,-8.67441,,,,"PT",,
"NB20_Z",3811,37.1237,-8.67427,,,,"PT",,
"NB21_G",3818,37.16,-8.74156,,,,"PT",,
"NB21_H",3819,37.178,-8.74145,,,,"PT",,
"NB22_E",3841,37.3043,-8.76321,,,,"PT",,
"NB22_I",3845,37.2862,-8.74076,,,,"PT",,
"NB22_S",3854,37.268,-8.69578,,,,"PT",,
"NB22_U",3856,37.304,-8.69553,,,,"PT",,
"NB24_B",3888,37.4304,-8.76245,,,,"PT",,
"NB24_D",3890,37.4665,-8.76223,,,,"PT",,
"NB24_F",3892,37.4123,-8.73996,,,,"PT",,
"NB24_M",3899,37.4483,-8.71714,,,,"PT",,
"NB24_U",3906,37.4842,-8.69428,,,,"PT",,
"NB24_X",3909,37.4481,-8.67193,,,,"PT",,
"NB28",515,37.8101,-8.7173,,,,"PT",,
"NB28_B",3988,37.7908,-8.76028,,,,"PT",,
"NB28_D",3990,37.8268,-8.76006,,,,"PT",,
"NB28_H",3994,37.8087,-8.73746,,,,"PT",,
"NB28_J",3996,37.8448,-8.73723,,,,"PT",,
"NB28_N",4000,37.8266,-8.71463,,,,"PT",,
"NB28_U",4006,37.8446,-8.69179,,,,"PT",,
"NB29_D",4015,37.9161,-8.75844,,,,"PT",,
"NB29_H",4019,37.8981,-8.73567,,,,"PT",,
"NB29_K",4022,37.8621,-8.71288,,,,"PT",,
"NB29_S",4029,37.8981,-8.69019,,,,"PT",,
"NB29_U",4031,37.9341,-8.69023,,,,"PT",,
"NB29_Y",4035,37.9161,-8.66746,,,,"PT",,
"NB30",408,37.0887,-8.60749,,,,"PT",,
"NB31_E",4041,37.2137,-8.65109,,,,"PT",,
"NB31_F",4042,37.1415,-8.62913,,,,"PT",,
"NB31_G",4043,37.1595,-8.62898,,,,"PT",,
"NB31_H",4044,37.1775,-8.62884,,,,"PT",,
"NB31_K",4047,37.1414,-8.60661,,,,"PT",,
"NB31_L",4048,37.1594,-8.60647,,,,"PT",,
"NB31_N",4050,37.1954,-8.60618,,,,"PT",,
"NB31_Q",4052,37.1413,-8.5841,,,,"PT",,
"NB31_W",4058,37.1592,-8.56144,,,,"PT",,
"NB31_Z",4061,37.2132,-8.56097,,,,"PT",,
"NB32_X",4084,37.2673,-8.5605,,,,"PT",,
"NB32_Y",4085,37.2853,-8.56034,,,,"PT",,
"NB33_B",4088,37.3398,-8.65015,,,,"PT",,
"NB33_E",4091,37.3939,-8.64974,,,,"PT",,
"NB33_J",4096,37.3938,-8.62715,,,,"PT",,
"NB33_L",4098,37.3396,-8.60501,,,,"PT",,
"NB33_P",4101,37.3937,-8.60457,,,,"PT",,
"NB33_Q",4102,37.3215,-8.58259,,,,"PT",,
"NB33_W",4108,37.3394,-8.55987,,,,"PT",,
"NB33_Y",4110,37.3754,-8.55955,,,,"PT",,
"NB35_B",4138,37.52,-8.64879,,,,"PT",,
"NB35_D",4140,37.5561,-8.64852,,,,"PT",,
"NB35_F",4142,37.5019,-8.62631,,,,"PT",,
"NB35_H",4144,37.5379,-8.62602,,,,"PT",,
"NB35_J",4146,37.574,-8.62574,,,,"PT",,
"NB35_L",4148,37.5198,-8.60354,,,,"PT",,
"NB39_C",4239,37.8981,-8.64471,,,,"PT",,
"NB39_F",4242,37.8621,-8.62197,,,,"PT",,
"NB39_L",4248,37.8801,-8.59924,,,,"PT",,
"NB39_S",4254,37.8981,-8.5765,,,,"PT",,
"NB39_U",4256,37.9342,-8.57648,,,,"PT",,
"NB39_Y",4260,37.9161,-8.55374,,,,"PT",,
"NB40",409,37.0883,-8.49497,,,,"PT",,
"NB40_E",4266,37.123,-8.53925,,,,"PT",,
"NB40_I",4270,37.1048,-8.51691,,,,"PT",,
"NB40_P",4276,37.1227,-8.49424,,,,"PT",,
"NB40_T",4280,37.1046,-8.47191,,,,"PT",,
"NB40_X",4284,37.0864,-8.4496,,,,"PT",,
"NB40_Z",4286,37.1224,-8.44923,,,,"PT",,
"NB41",422,37.1784,-8.49437,,,,"PT",,
"NB41_C",4289,37.1771,-8.53876,,,,"PT",,
"NB41_F",4292,37.1409,-8.51658,,,,"PT",,
"NB41_L",4298,37.1588,-8.49389,,,,"PT",,
"NB41_N",4300,37.1948,-8.49355,,,,"PT",,
"NB41_P",4301,37.2128,-8.49338,,,,"PT",,
"NB41_S",4304,37.1766,-8.4712,,,,"PT",,
"NB41_Y",4310,37.1945,-8.4485,,,,"PT",,
"NB42_G",4318,37.249,-8.51557,,,,"PT",,
"NB42_I",4320,37.285,-8.51524,,,,"PT",,
"NB42_K",4322,37.2308,-8.4932,,,,"PT",,
"NB42_S",4329,37.2667,-8.47031,,,,"PT",,
"NB42_U",4331,37.3028,-8.46995,,,,"PT",,
"NB42_W",4333,37.2486,-8.44795,,,,"PT",,
"NB44_K",4372,37.411,-8.49147,,,,"PT",,
"NB44_M",4374,37.4471,-8.49112,,,,"PT",,
"NB44_P",4376,37.4831,-8.49078,,,,"PT",,
"NB44_R",4378,37.4289,-8.4687,,,,"PT",,
"NB44_T",4380,37.465,-8.46834,,,,"PT",,
"NB45",477,37.539,-8.49195,,,,"PT",,
"NB45_F",4392,37.5013,-8.51322,,,,"PT",,
"NB46",490,37.6291,-8.49133,,,,"PT",,
"NB46_A",4412,37.5915,-8.53502,,,,"PT",,
"NB46_G",4418,37.6094,-8.51221,,,,"PT",,
"NB46_K",4422,37.5912,-8.48973,,,,"PT",,
"NB46_N",4425,37.6453,-8.48921,,,,"PT",,
"NB46_R",4428,37.6091,-8.46691,,,,"PT",,
"NB46_X",4434,37.627,-8.44407,,,,"PT",,
"NB48_C",4464,37.8077,-8.53306,,,,"PT",,
"NB48_E",4466,37.8438,-8.53274,,,,"PT",,
"NB48_I",4470,37.8256,-8.51018,,,,"PT",,
"NB48_P",4476,37.8435,-8.48729,,,,"PT",,
"NB48_T",4480,37.8253,-8.46475,,,,"PT",,
"NB48_Z",4486,37.8432,-8.44185,,,,"PT",,
"NB49",533,37.8995,-8.48948,,,,"PT",,
"NB49_V",4507,37.862,-8.44015,,,,"PT",,
"NB50_Y",4535,37.1036,-8.33692,,,,"PT",,
"NB51_D",4540,37.1944,-8.42597,,,,"PT",,
"NB51_G",4543,37.1582,-8.40384,,,,"PT",,
"NB51_K",4547,37.14,-8.38152,,,,"PT",,
"NB51_P",4551,37.2121,-8.38072,,,,"PT",,
"NB51_T",4555,37.1939,-8.3584,,,,"PT",,
"NB51_X",4559,37.1757,-8.33608,,,,"PT",,
"NB53_B",4588,37.3385,-8.42446,,,,"PT",,
"NB53_C",4589,37.3566,-8.42427,,,,"PT",,
"NB53_E",4591,37.3926,-8.42389,,,,"PT",,
"NB53_G",4593,37.3384,-8.40189,,,,"PT",,
"NB53_H",4594,37.3564,-8.4017,,,,"PT",,
"NB53_I",4595,37.3744,-8.4015,,,,"PT",,
"NB53_R",4603,37.3381,-8.35675,,,,"PT",,
"NB53_S",4604,37.3561,-8.35655,,,,"PT",,
"NB53_V",4607,37.3199,-8.3344,,,,"PT",,
"NB53_Z",4611,37.392,-8.33355,,,,"PT",,
"NB55_H",4644,37.5366,-8.39974,,,,"PT",,
"NB55_I",4645,37.5546,-8.39955,,,,"PT",,
"NB55_M",4649,37.5364,-8.37711,,,,"PT",,
"NB55_N",4650,37.5545,-8.37691,,,,"PT",,
"NB55_U",4656,37.5723,-8.35407,,,,"PT",,
"NB55_Y",4660,37.5541,-8.33165,,,,"PT",,
"NB57_I",4695,37.7348,-8.39759,,,,"PT",,
"NB57_K",4697,37.6806,-8.3755,,,,"PT",,
"NB57_M",4699,37.7166,-8.3751,,,,"PT",,
"NB57_P",4701,37.7527,-8.3747,,,,"PT",,
"NB57_R",4703,37.6984,-8.35262,,,,"PT",,
"NB57_X",4709,37.7163,-8.32973,,,,"PT",,
"NB59_D",4740,37.916,-8.41728,,,,"PT",,
"NB59_G",4743,37.8799,-8.39464,,,,"PT",,
"NB59_J",4746,37.934,-8.39448,,,,"PT",,
"NB59_M",4749,37.8979,-8.37185,,,,"PT",,
"NB59_U",4756,37.9339,-8.34898,,,,"PT",,
"NB59_X",4759,37.8978,-8.32637,,,,"PT",,
"NB60_C",4764,37.0854,-8.31464,,,,"PT",,
"NB60_E",4766,37.1215,-8.31421,,,,"PT",,
"NB60_I",4770,37.1033,-8.29193,,,,"PT",,
"NB60_M",4774,37.0851,-8.26965,,,,"PT",,
"NB60_T",4780,37.1029,-8.24693,,,,"PT",,
"NB60_Z",4786,37.1208,-8.22419,,,,"PT",,
"NB62_A",4812,37.2296,-8.31291,,,,"PT",,
"NB62_C",4814,37.2656,-8.31248,,,,"PT",,
"NB62_J",4821,37.3015,-8.28949,,,,"PT",,
"NB62_S",4829,37.2651,-8.24484,,,,"PT",,
"NB62_W",4833,37.2469,-8.22253,,,,"PT",,
"NB62_Z",4836,37.301,-8.22182,,,,"PT",,
"NB64",466,37.4477,-8.26646,,,,"PT",,
"NB64_C",4864,37.4458,-8.31032,,,,"PT",,
"NB64_E",4866,37.4819,-8.30988,,,,"PT",,
"NB64_G",4868,37.4276,-8.28794,,,,"PT",,
"NB64_I",4870,37.4637,-8.28749,,,,"PT",,
"NB64_M",4874,37.4455,-8.26512,,,,"PT",,
"NB64_X",4884,37.4451,-8.21992,,,,"PT",,
"NB68",519,37.8082,-8.26291,,,,"PT",,
"NB68_B",4963,37.7882,-8.30618,,,,"PT",,
"NB68_F",4967,37.77,-8.2837,,,,"PT",,
"NB68_H",4969,37.806,-8.28325,,,,"PT",,
"NB68_Q",4977,37.7696,-8.2383,,,,"PT",,
"NB68_W",4983,37.7875,-8.21536,,,,"PT",,
"NB68_Z",4986,37.8415,-8.21464,,,,"PT",,
"NB70",412,37.0864,-8.15744,,,,"PT",,
"NB73_D",5090,37.3728,-8.19829,,,,"PT",,
"NB73_H",5094,37.3546,-8.17596,,,,"PT",,
"NB73_L",5098,37.3364,-8.15364,,,,"PT",,
"NB73_P",5101,37.3905,-8.15288,,,,"PT",,
"NB73_Q",5102,37.3182,-8.13134,,,,"PT",,
"NB73_T",5105,37.3722,-8.13056,,,,"PT",,
"NB75_C",5139,37.535,-8.19609,,,,"PT",,
"NB75_G",5143,37.5168,-8.17372,,,,"PT",,
"NB75_K",5147,37.4986,-8.15135,,,,"PT",,
"NB75_N",5150,37.5526,-8.15058,,,,"PT",,
"NB75_S",5154,37.5344,-8.12821,,,,"PT",,
"NB75_W",5158,37.5162,-8.10585,,,,"PT",,
"NB76_J",5171,37.661,-8.17171,,,,"PT",,
"NB77",506,37.7173,-8.15035,,,,"PT",,
"NB77_E",5191,37.7512,-8.19315,,,,"PT",,
"NB77_H",5194,37.715,-8.17096,,,,"PT",,
"NB77_I",5195,37.733,-8.17071,,,,"PT",,
"NB77_L",5198,37.6968,-8.14854,,,,"PT",,
"NB77_M",5199,37.7148,-8.14828,,,,"PT",,
"NB77_N",5200,37.7328,-8.14802,,,,"PT",,
"NB77_P",5201,37.7508,-8.14776,,,,"PT",,
"NB77_S",5204,37.7146,-8.1256,,,,"PT",,
"NB77_T",5205,37.7326,-8.12533,,,,"PT",,
"NB77_W",5208,37.6964,-8.10318,,,,"PT",,
"NB77_X",5209,37.7144,-8.10292,,,,"PT",,
"NB78_J",5221,37.8411,-8.1692,,,,"PT",,
"NB78_Y",5235,37.8225,-8.10131,,,,"PT",,
"NB80",413,37.0855,-8.04494,,,,"PT",,
"NB80_B",26450,37.0662543427,-8.0890831305,,,,"PT",,
"NB80_J",26449,37.1201573804,-8.065925789,,,,"PT",,
"NB80_K",26448,37.0478743937,-8.0443216637,,,,"PT",,
"NB80_N",26467,37.101952111,-8.0436428134,,,,"PT",,
"NB80_W",26458,37.0655293085,-7.9991088379,,,,"PT",,
"NB80_Z",26465,37.1196061334,-7.998397413,,,,"PT",,
"NB81",426,37.1757,-8.04381,,,,"PT",,
"NB81_A",5264,37.1378,-8.08604,,,,"PT",,
"NB81_C",26383,37.17441,-8.087786,,,,"PT",,
"NB81_I",5270,37.1918,-8.06316,,,,"PT",,
"NB81_M",5274,37.1736,-8.04076,,,,"PT",,
"NB81_T",5280,37.1916,-8.01811,,,,"PT",,
"NB81_Z",26385,37.209733,-7.997207,,,,"PT",,
"NB82_A",26582,37.228487552,-8.0871354853,,,,"PT",,
"NB82_F",26574,37.2283116655,-8.0645935249,,,,"PT",,
"NB82_G",26590,37.2463371835,-8.0643707883,,,,"PT",,
"NB82_K",26575,37.228131489,-8.0420517627,,,,"PT",,
"NB82_N",26576,37.2822075236,-8.041366843,,,,"PT",,
"NB82_Q",5290,37.2276,-8.01784,,,,"PT",,
"NB82_S",26581,37.2639975288,-8.0190430558,,,,"PT",,
"NB82_U",5291,37.2997,-8.01731,,,,"PT",,
"NB82_V",26588,37.2277582661,-7.9969688519,,,,"PT",,
"NB82_W",26584,37.2457834248,-7.9967300157,,,,"PT",,
"NB82_Z",5293,37.2996,-7.99475,,,,"PT",,
"NB84_E",5318,37.4802,-8.0838,,,,"PT",,
"NB84_F",26720,37.4085643206,-8.0623572089,,,,"PT",,
"NB84_H",5319,37.444,-8.06143,,,,"PT",,
"NB84_I",5320,37.4621,-8.06131,,,,"PT",,
"NB84_L",26725,37.4264078109,-8.0395314206,,,,"PT",,
"NB84_Q",5322,37.4078,-8.0165,,,,"PT",,
"NB84_U",5325,37.4799,-8.01596,,,,"PT",,
"NB84_W",5326,37.4257,-7.99377,,,,"PT",,
"NB84_Y",5328,37.4618,-7.99349,,,,"PT",,
"NB86_B",26354,37.607014,-8.08253,,,,"PT",,
"NB87",507,37.7164,-8.0369,,,,"PT",,
"NB87_C",5351,37.7144,-8.08225,,,,"PT",,
"NB87_I",5357,37.7324,-8.05945,,,,"PT",,
"NB87_N",5362,37.7323,-8.03676,,,,"PT",,
"NB87_Y",5372,37.732,-7.99138,,,,"PT",,
"NB88_B",5375,37.7865,-8.08178,,,,"PT",,
"NB88_D",5377,37.8226,-8.08154,,,,"PT",,
"NB88_G",5380,37.7864,-8.05907,,,,"PT",,
"NB88_H",5381,37.8044,-8.05895,,,,"PT",,
"NB88_L",5385,37.7863,-8.03637,,,,"PT",,
"NB88_Q",5389,37.7682,-8.0138,,,,"PT",,
"NB88_X",5396,37.8041,-7.99082,,,,"PT",,
"NB89_V",5419,37.8604,-7.9856,,,,"PT",,
"NB92_A",26571,37.2275652201,-7.9744277129,,,,"PT",,
"NB92_C",26559,37.2636152305,-7.9739390908,,,,"PT",,
"NB92_F",26570,37.2273678846,-7.9518867912,,,,"PT",,
"NB92_H",26551,37.2634176386,-7.9513874325,,,,"PT",,
"NB92_I",26560,37.2814424311,-7.9511374196,,,,"PT",,
"NB92_K",26567,37.2271662595,-7.9293460916,,,,"PT",,
"NB92_L",26569,37.2451910338,-7.9290911577,,,,"PT",,
"NB92_M",26556,37.2632157517,-7.9288359967,,,,"PT",,
"NB92_S",26553,37.26300957,-7.9062847881,,,,"PT",,
"NB92_Y",26552,37.2808234845,-7.8834676735,,,,"PT",,
"NB93",455,37.3549,-7.92863,,,,"PT",,
"NB93_A",5458,37.3175,-7.97205,,,,"PT",,
"NB93_D",26647,37.3717639096,-7.9724679934,,,,"PT",,
"NB93_G",26648,37.3355164701,-7.9503860438,,,,"PT",,
"NB93_M",26649,37.3533384943,-7.9275567787,,,,"PT",,
"NB93_T",26656,37.3711558878,-7.9047167203,,,,"PT",,
"NB93_U",5469,37.3892,-7.90371,,,,"PT",,
"NB94_A",26711,37.4078130184,-7.9719758783,,,,"PT",,
"NB94_K",26699,37.407411462,-7.9267865098,,,,"PT",,
"NB94_M",5476,37.4434,-7.92583,,,,"PT",,
"NB94_Q",26704,37.4072042079,-7.9041921665,,,,"PT",,
"NB94_R",5477,37.4252,-7.90339,,,,"PT",,
"NB94_T",5478,37.4613,-7.90307,,,,"PT",,
"NB97_B",5512,37.6959,-7.96899,,,,"PT",,
"NB97_C",5513,37.7139,-7.96884,,,,"PT",,
"NB97_G",5517,37.6958,-7.94631,,,,"PT",,
"NB97_L",5522,37.6957,-7.92363,,,,"PT",,
"NB97_P",5525,37.7497,-7.92316,,,,"PT",,
"NB97_S",5528,37.7135,-7.90079,,,,"PT",,
"NB97_T",5529,37.7316,-7.90063,,,,"PT",,
"NB97_W",5532,37.6954,-7.87828,,,,"PT",,
"NB97_X",5533,37.7134,-7.87811,,,,"PT",,
"NB97_Z",5535,37.7495,-7.87777,,,,"PT",,
"NB98_D",5539,37.822,-7.96796,,,,"PT",,
"NB99_A",5561,37.8602,-7.96888,,,,"PT",,
"NB99_C",5563,37.8962,-7.96819,,,,"PT",,
"NB99_I",5569,37.914,-7.9451,,,,"PT",,
"NB99_L",5572,37.8776,-7.92307,,,,"PT",,
"NB99_P",5575,37.9317,-7.922,,,,"PT",,
"NB99_R",5577,37.8774,-7.90034,,,,"PT",,
"NB99_X",5583,37.8951,-7.87724,,,,"PT",,
"NC06_H",5593,38.5282,-8.96609,,,,"PT",,
"NC06_K",5596,38.4922,-8.94299,,,,"PT",,
"NC06_P",5600,38.5643,-8.94332,,,,"PT",,
"NC06_R",5602,38.5103,-8.92014,,,,"PT",,
"NC06_W",5607,38.5104,-8.89721,,,,"PT",,
"NC06_X",5608,38.5284,-8.89728,,,,"PT",,
"NC06_Z",5610,38.5644,-8.89743,,,,"PT",,
"NC07",672,38.6216,-8.94389,,,,"PT",,
"NC08_A",5636,38.674,-8.98732,,,,"PT",,
"NC08_E",5640,38.746,-8.98761,,,,"PT",,
"NC08_G",5642,38.692,-8.96441,,,,"PT",,
"NC08_I",5644,38.7281,-8.96454,,,,"PT",,
"NC08_M",5648,38.7101,-8.94148,,,,"PT",,
"NC08_T",5654,38.7282,-8.91854,,,,"PT",,
"NC08_U",5655,38.7462,-8.9186,,,,"PT",,
"NC08_X",5658,38.7102,-8.8955,,,,"PT",,
"NC08_Y",5659,38.7282,-8.89555,,,,"PT",,
"NC09",714,38.8018,-8.94375,,,,"PT",,
"NC09_J",5670,38.8362,-8.96495,,,,"PT",,
"NC09_K",5671,38.7642,-8.94167,,,,"PT",,
"NC09_R",5677,38.7822,-8.91871,,,,"PT",,
"NC09_T",5679,38.8182,-8.91882,,,,"PT",,
"NC09_V",5681,38.7642,-8.89565,,,,"PT",,
"NC09_Z",5685,38.8363,-8.89585,,,,"PT",,
"NC11_T",5729,38.0962,-8.80439,,,,"PT",,
"NC11_X",5733,38.0782,-8.78155,,,,"PT",,
"NC11_Y",5734,38.0962,-8.78159,,,,"PT",,
"NC12_V",26971,38.1332098876,-8.7832450672,,,,"PT",,
"NC14",617,38.3511,-8.82966,,,,"PT",,
"NC15",636,38.4412,-8.82944,,,,"PT",,
"NC15_E",5765,38.4744,-8.87415,,,,"PT",,
"NC15_H",5768,38.4384,-8.85111,,,,"PT",,
"NC15_I",5769,38.4564,-8.85117,,,,"PT",,
"NC15_L",5772,38.4204,-8.82815,,,,"PT",,
"NC15_M",5773,38.4385,-8.82821,,,,"PT",,
"NC15_S",5778,38.4385,-8.8053,,,,"PT",,
"NC15_V",5781,38.4025,-8.78231,,,,"PT",,
"NC16_G",5792,38.5105,-8.85135,,,,"PT",,
"NC16_S",5803,38.5286,-8.80554,,,,"PT",,
"NC16_Y",5809,38.5466,-8.78265,,,,"PT",,
"NC19",715,38.8017,-8.82859,,,,"PT",,
"NC19_D",5864,38.8183,-8.87277,,,,"PT",,
"NC19_H",5868,38.8003,-8.8497,,,,"PT",,
"NC19_J",5870,38.8364,-8.84978,,,,"PT",,
"NC19_L",5872,38.7824,-8.82665,,,,"PT",,
"NC19_N",5874,38.8184,-8.82671,,,,"PT",,
"NC19_P",5875,38.8364,-8.82675,,,,"PT",,
"NC19_S",5878,38.8004,-8.80366,,,,"PT",,
"NC19_T",5879,38.8184,-8.80369,,,,"PT",,
"NC19_U",5880,38.8364,-8.80371,,,,"PT",,
"NC20_H",5893,37.9882,-8.73581,,,,"PT",,
"NC20_K",5896,37.9522,-8.713,,,,"PT",,
"NC20_P",5900,38.0242,-8.7131,,,,"PT",,
"NC20_R",5902,37.9702,-8.69026,,,,"PT",,
"NC20_T",5904,38.0062,-8.6903,,,,"PT",,
"NC20_X",5908,37.9882,-8.66752,,,,"PT",,
"NC22_A",5936,38.1323,-8.75887,,,,"PT",,
"NC24",618,38.3509,-8.71521,,,,"PT",,
"NC25",637,38.441,-8.71486,,,,"PT",,
"NC25_A",6011,38.4025,-8.75941,,,,"PT",,
"NC26_D",6039,38.5467,-8.75971,,,,"PT",,
"NC26_J",6045,38.5647,-8.7368,,,,"PT",,
"NC27",674,38.6212,-8.71415,,,,"PT",,
"NC27_D",6064,38.6367,-8.7599,,,,"PT",,
"NC27_H",6068,38.6188,-8.7369,,,,"PT",,
"NC27_I",6069,38.6368,-8.73693,,,,"PT",,
"NC27_N",6074,38.6368,-8.71396,,,,"PT",,
"NC27_R",6077,38.6008,-8.69095,,,,"PT",,
"NC27_U",6080,38.6548,-8.69101,,,,"PT",,
"NC27_V",6081,38.5828,-8.66798,,,,"PT",,
"NC28_C",6088,38.7104,-8.75754,,,,"PT",,
"NC28_I",6094,38.7284,-8.73455,,,,"PT",,
"NC28_R",6102,38.6924,-8.68856,,,,"PT",,
"NC28_T",6104,38.7284,-8.68855,,,,"PT",,
"NC28_V",6106,38.6743,-8.66558,,,,"PT",,
"NC28_Z",6110,38.7464,-8.66555,,,,"PT",,
"NC30_B",6137,37.9702,-8.64474,,,,"PT",,
"NC30_E",6140,38.0243,-8.64476,,,,"PT",,
"NC30_K",6146,37.9522,-8.59922,,,,"PT",,
"NC30_P",6150,38.0243,-8.59921,,,,"PT",,
"NC30_V",6156,37.9522,-8.55371,,,,"PT",,
"NC30_Y",6159,38.0062,-8.55367,,,,"PT",,
"NC33",601,38.2604,-8.60126,,,,"PT",,
"NC33_C",6213,38.2585,-8.64487,,,,"PT",,
"NC33_I",6219,38.2765,-8.62202,,,,"PT",,
"NC33_K",6221,38.2225,-8.59917,,,,"PT",,
"NC33_R",6227,38.2405,-8.57632,,,,"PT",,
"NC33_V",6231,38.2224,-8.55349,,,,"PT",,
"NC33_X",6233,38.2585,-8.55346,,,,"PT",,
"NC34",619,38.3505,-8.60077,,,,"PT",,
"NC35",638,38.4407,-8.60027,,,,"PT",,
"NC37",675,38.6209,-8.59928,,,,"PT",,
"NC38_B",6337,38.6923,-8.64258,,,,"PT",,
"NC38_F",6341,38.6743,-8.61961,,,,"PT",,
"NC38_H",6343,38.7103,-8.61957,,,,"PT",,
"NC38_J",6345,38.7464,-8.61954,,,,"PT",,
"NC38_L",6347,38.6923,-8.59661,,,,"PT",,
"NC38_N",6349,38.7283,-8.59656,,,,"PT",,
"NC38_P",6350,38.7464,-8.59653,,,,"PT",,
"NC38_Q",6351,38.6743,-8.57365,,,,"PT",,
"NC39",717,38.8011,-8.59827,,,,"PT",,
"NC39_A",6361,38.7644,-8.64253,,,,"PT",,
"NC39_G",6367,38.7824,-8.6195,,,,"PT",,
"NC39_J",6370,38.8365,-8.61944,,,,"PT",,
"NC39_R",6377,38.7824,-8.57347,,,,"PT",,
"NC39_T",6379,38.8184,-8.5734,,,,"PT",,
"NC39_Z",6385,38.8364,-8.55034,,,,"PT",,
"NC40_B",6387,37.9702,-8.53094,,,,"PT",,
"NC40_D",6389,38.0062,-8.5309,,,,"PT",,
"NC40_J",6395,38.0242,-8.5081,,,,"PT",,
"NC40_N",6399,38.0062,-8.48535,,,,"PT",,
"NC40_S",6403,37.9881,-8.46262,,,,"PT",,
"NC40_Y",6409,38.0061,-8.43981,,,,"PT",,
"NC41_D",6414,38.0963,-8.53079,,,,"PT",,
"NC41_F",6416,38.0422,-8.50807,,,,"PT",,
"NC41_H",6418,38.0783,-8.50802,,,,"PT",,
"NC41_N",6424,38.0963,-8.48519,,,,"PT",,
"NC41_R",6427,38.0602,-8.46247,,,,"PT",,
"NC41_S",6428,38.0782,-8.46243,,,,"PT",,
"NC41_V",6431,38.0422,-8.43972,,,,"PT",,
"NC42_G",6442,38.1503,-8.50792,,,,"PT",,
"NC42_K",6446,38.1323,-8.48513,,,,"PT",,
"NC43_B",6462,38.2405,-8.53063,,,,"PT",,
"NC43_D",6464,38.2765,-8.53059,,,,"PT",,
"NC43_F",6466,38.2224,-8.50781,,,,"PT",,
"NC43_J",6470,38.2945,-8.50771,,,,"PT",,
"NC43_K",6471,38.2224,-8.48497,,,,"PT",,
"NC43_N",6474,38.2764,-8.48488,,,,"PT",,
"NC43_P",6475,38.2945,-8.48485,,,,"PT",,
"NC43_S",6478,38.2584,-8.46206,,,,"PT",,
"NC43_T",6479,38.2764,-8.46202,,,,"PT",,
"NC43_U",6480,38.2944,-8.46199,,,,"PT",,
"NC43_V",6481,38.2223,-8.43929,,,,"PT",,
"NC43_Y",6484,38.2764,-8.43917,,,,"PT",,
"NC44",620,38.3501,-8.48633,,,,"PT",,
"NC45",639,38.4402,-8.48569,,,,"PT",,
"NC48_E",6590,38.7463,-8.52752,,,,"PT",,
"NC48_I",6594,38.7282,-8.50456,,,,"PT",,
"NC48_L",6597,38.6922,-8.48167,,,,"PT",,
"NC48_V",6606,38.674,-8.43576,,,,"PT",,
"NC48_X",6608,38.7101,-8.43562,,,,"PT",,
"NC48_Y",6609,38.7281,-8.43556,,,,"PT",,
"NC48_Z",6610,38.7461,-8.43549,,,,"PT",,
"NC51_A",6661,38.0421,-8.41694,,,,"PT",,
"NC51_C",6663,38.0782,-8.41684,,,,"PT",,
"NC51_J",6670,38.1142,-8.39394,,,,"PT",,
"NC51_N",6674,38.0961,-8.37119,,,,"PT",,
"NC51_U",6680,38.1141,-8.34833,,,,"PT",,
"NC51_X",6683,38.078,-8.32566,,,,"PT",,
"NC53_E",6715,38.2944,-8.41626,,,,"PT",,
"NC53_I",6719,38.2763,-8.39345,,,,"PT",,
"NC53_M",6723,38.2582,-8.37066,,,,"PT",,
"NC53_R",6727,38.2402,-8.34787,,,,"PT",,
"NC53_T",6729,38.2762,-8.34774,,,,"PT",,
"NC53_X",6733,38.2581,-8.32496,,,,"PT",,
"NC55",640,38.4397,-8.37111,,,,"PT",,
"NC55_A",6761,38.4025,-8.41597,,,,"PT",,
"NC55_G",6767,38.4204,-8.39302,,,,"PT",,
"NC55_I",6769,38.4565,-8.39292,,,,"PT",,
"NC55_P",6775,38.4745,-8.36994,,,,"PT",,
"NC55_S",6778,38.4384,-8.34716,,,,"PT",,
"NC55_T",6779,38.4564,-8.34709,,,,"PT",,
"NC55_W",6782,38.4203,-8.32432,,,,"PT",,
"NC56_E",6790,38.5646,-8.41554,,,,"PT",,
"NC56_G",6792,38.5105,-8.39275,,,,"PT",,
"NC56_K",6796,38.4925,-8.36988,,,,"PT",,
"NC56_P",6800,38.5645,-8.36965,,,,"PT",,
"NC56_Q",6801,38.4924,-8.34696,,,,"PT",,
"NC56_S",6803,38.5285,-8.34683,,,,"PT",,
"NC56_W",6807,38.5104,-8.32396,,,,"PT",,
"NC56_Z",6810,38.5644,-8.32375,,,,"PT",,
"NC57",677,38.6199,-8.36954,,,,"PT",,
"NC57_C",6813,38.6187,-8.4154,,,,"PT",,
"NC57_E",6815,38.6547,-8.4153,,,,"PT",,
"NC57_P",6825,38.6546,-8.36935,,,,"PT",,
"NC57_R",6827,38.6005,-8.34657,,,,"PT",,
"NC57_X",6833,38.6185,-8.32354,,,,"PT",,
"NC57_Z",6835,38.6545,-8.32339,,,,"PT",,
"NC58_U",6855,38.7459,-8.34347,,,,"PT",,
"NC58_W",6857,38.6917,-8.32075,,,,"PT",,
"NC59_B",6862,38.7821,-8.41235,,,,"PT",,
"NC59_F",6866,38.764,-8.38941,,,,"PT",,
"NC59_I",6869,38.8181,-8.38917,,,,"PT",,
"NC59_R",6877,38.7819,-8.3433,,,,"PT",,
"NC59_V",6881,38.7638,-8.32037,,,,"PT",,
"NC59_W",6882,38.7818,-8.32028,,,,"PT",,
"NC59_X",6883,38.7998,-8.32018,,,,"PT",,
"NC60_E",6890,38.0239,-8.3031,,,,"PT",,
"NC60_G",6892,37.9697,-8.28056,,,,"PT",,
"NC60_M",6898,37.9877,-8.25772,,,,"PT",,
"NC60_R",6902,37.9696,-8.23504,,,,"PT",,
"NC60_T",6904,38.0056,-8.23486,,,,"PT",,
"NC60_X",6908,37.9875,-8.21218,,,,"PT",,
"NC62_C",6938,38.168,-8.30249,,,,"PT",,
"NC62_G",6942,38.1499,-8.27975,,,,"PT",,
"NC62_K",6946,38.1318,-8.25702,,,,"PT",,
"NC62_R",6952,38.1498,-8.23411,,,,"PT",,
"NC63",604,38.2588,-8.25838,,,,"PT",,
"NC63_P",6975,38.294,-8.25623,,,,"PT",,
"NC64_C",6988,38.3482,-8.30172,,,,"PT",,
"NC64_D",6989,38.3662,-8.30165,,,,"PT",,
"NC64_H",6993,38.3481,-8.27884,,,,"PT",,
"NC64_L",6997,38.33,-8.25605,,,,"PT",,
"NC64_M",6998,38.348,-8.25596,,,,"PT",,
"NC64_Q",7001,38.3119,-8.23327,,,,"PT",,
"NC64_R",7002,38.33,-8.23318,,,,"PT",,
"NC64_U",7005,38.384,-8.2329,,,,"PT",,
"NC64_X",7008,38.3479,-8.21021,,,,"PT",,
"NC65",641,38.439,-8.25654,,,,"PT",,
"NC65_N",7024,38.4561,-8.25544,,,,"PT",,
"NC66_A",7036,38.4923,-8.30111,,,,"PT",,
"NC66_B",7037,38.5103,-8.30103,,,,"PT",,
"NC66_C",7038,38.5283,-8.30096,,,,"PT",,
"NC66_D",7039,38.5464,-8.30088,,,,"PT",,
"NC66_E",7040,38.5644,-8.3008,,,,"PT",,
"NC66_G",7042,38.5103,-8.2781,,,,"PT",,
"NC66_H",7043,38.5283,-8.27802,,,,"PT",,
"NC66_J",7045,38.5643,-8.27786,,,,"PT",,
"NC66_L",7047,38.5102,-8.25517,,,,"PT",,
"NC66_M",7048,38.5282,-8.25508,,,,"PT",,
"NC66_N",7049,38.5462,-8.255,,,,"PT",,
"NC66_Y",7059,38.5461,-8.20911,,,,"PT",,
"NC67",678,38.6192,-8.25468,,,,"PT",,
"NC67_T",7079,38.6362,-8.23158,,,,"PT",,
"NC68_B",7087,38.6917,-8.29776,,,,"PT",,
"NC68_D",7089,38.7277,-8.29756,,,,"PT",,
"NC68_H",7093,38.7096,-8.27467,,,,"PT",,
"NC68_J",7095,38.7456,-8.27446,,,,"PT",,
"NC68_L",7097,38.6915,-8.25179,,,,"PT",,
"NC68_Q",7101,38.6734,-8.22892,,,,"PT",,
"NC68_W",7107,38.6913,-8.20581,,,,"PT",,
"NC69_K",7121,38.7636,-8.25134,,,,"PT",,
"NC71_B",7162,38.0595,-8.189,,,,"PT",,
"NC71_D",7164,38.0956,-8.18879,,,,"PT",,
"NC71_F",7166,38.0414,-8.16632,,,,"PT",,
"NC71_H",7168,38.0775,-8.1661,,,,"PT",,
"NC71_L",7172,38.0594,-8.14342,,,,"PT",,
"NC71_N",7174,38.0954,-8.14319,,,,"PT",,
"NC73_E",7215,38.2938,-8.18764,,,,"PT",,
"NC73_I",7219,38.2757,-8.16489,,,,"PT",,
"NC73_P",7225,38.2936,-8.14192,,,,"PT",,
"NC73_Q",7226,38.2214,-8.11954,,,,"PT",,
"NC73_T",7229,38.2755,-8.11918,,,,"PT",,
"NC73_W",7232,38.2393,-8.09658,,,,"PT",,
"NC74",623,38.3481,-8.14303,,,,"PT",,
"NC74_E",7240,38.3839,-8.18712,,,,"PT",,
"NC75_C",7263,38.4379,-8.1868,,,,"PT",,
"NC75_J",7270,38.4739,-8.16367,,,,"PT",,
"NC75_N",7274,38.4557,-8.14087,,,,"PT",,
"NC75_Q",7276,38.4016,-8.11833,,,,"PT",,
"NC75_W",7282,38.4195,-8.0953,,,,"PT",,
"NC75_Y",7284,38.4556,-8.09505,,,,"PT",,
"NC77",679,38.6184,-8.13982,,,,"PT",,
"NC79",721,38.7986,-8.13766,,,,"PT",,
"NC79_E",7365,38.835,-8.18229,,,,"PT",,
"NC79_F",7366,38.7627,-8.16046,,,,"PT",,
"NC79_L",7372,38.7805,-8.13714,,,,"PT",,
"NC79_Q",7376,38.7622,-8.11444,,,,"PT",,
"NC79_S",7378,38.7982,-8.11382,,,,"PT",,
"NC79_X",7383,38.798,-8.0908,,,,"PT",,
"NC79_Y",7384,38.816,-8.09048,,,,"PT",,
"NC80_A",7386,37.951,-8.07585,,,,"PT",,
"NC80_G",7392,37.9689,-8.05296,,,,"PT",,
"NC80_K",7396,37.9507,-8.03034,,,,"PT",,
"NC80_M",7398,37.9868,-8.03005,,,,"PT",,
"NC80_P",7400,38.0228,-8.02977,,,,"PT",,
"NC80_R",7402,37.9686,-8.00743,,,,"PT",,
"NC82_C",7438,38.1672,-8.07426,,,,"PT",,
"NC82_E",7440,38.2032,-8.074,,,,"PT",,
"NC82_G",7442,38.149,-8.05158,,,,"PT",,
"NC82_M",7448,38.167,-8.02862,,,,"PT",,
"NC82_T",7454,38.1849,-8.00565,,,,"PT",,
"NC82_Z",7460,38.2028,-7.98266,,,,"PT",,
"NC85_A",7511,38.4014,-8.07253,,,,"PT",,
"NC85_C",7513,38.4374,-8.07227,,,,"PT",,
"NC85_I",7519,38.4553,-8.04922,,,,"PT",,
"NC85_M",7523,38.4372,-8.02645,,,,"PT",,
"NC85_P",7525,38.4732,-8.02616,,,,"PT",,
"NC85_R",7527,38.4191,-8.0037,,,,"PT",,
"NC85_T",7529,38.4551,-8.0034,,,,"PT",,
"NC86",661,38.5274,-8.02619,,,,"PT",,
"NC86_E",7540,38.5636,-8.07133,,,,"PT",,
"NC86_G",7542,38.5094,-8.0488,,,,"PT",,
"NC86_L",7547,38.5093,-8.02587,,,,"PT",,
"NC86_M",7548,38.5273,-8.02573,,,,"PT",,
"NC86_P",7550,38.5633,-8.02544,,,,"PT",,
"NC86_T",7554,38.5452,-8.00264,,,,"PT",,
"NC86_X",7558,38.5271,-7.97986,,,,"PT",,
"NC86_Z",7560,38.5631,-7.97954,,,,"PT",,
"NC87",680,38.6175,-8.02497,,,,"PT",,
"NC87_U",7580,38.6533,-8.00173,,,,"PT",,
"NC88",701,38.7076,-8.02375,,,,"PT",,
"NC88_B",7587,38.6896,-8.06971,,,,"PT",,
"NC88_D",7589,38.7257,-8.06906,,,,"PT",,
"NC88_J",7595,38.7434,-8.04574,,,,"PT",,
"NC88_N",7599,38.7252,-8.02307,,,,"PT",,
"NC88_R",7602,38.6889,-8.00075,,,,"PT",,
"NC88_T",7604,38.7249,-8.00007,,,,"PT",,
"NC88_U",7605,38.7429,-7.99974,,,,"PT",,
"NC88_X",7608,38.7066,-7.97742,,,,"PT",,
"NC88_Z",7610,38.7426,-7.97673,,,,"PT",,
"NC91_D",7664,38.0944,-7.96437,,,,"PT",,
"NC91_F",7666,38.0401,-7.94263,,,,"PT",,
"NC91_H",7668,38.0761,-7.94193,,,,"PT",,
"NC91_J",7670,38.1121,-7.94122,,,,"PT",,
"NC91_P",7675,38.1118,-7.91842,,,,"PT",,
"NC91_U",7680,38.1116,-7.89561,,,,"PT",,
"NC91_W",7682,38.0572,-7.87392,,,,"PT",,
"NC91_Y",7684,38.0933,-7.87318,,,,"PT",,
"NC93_E",7715,38.2926,-7.96053,,,,"PT",,
"NC93_G",7717,38.2382,-7.93874,,,,"PT",,
"NC93_I",7719,38.2743,-7.93803,,,,"PT",,
"NC93_M",7723,38.256,-7.91554,,,,"PT",,
"NC93_R",7727,38.2377,-7.89305,,,,"PT",,
"NC93_T",7729,38.2737,-7.89232,,,,"PT",,
"NC96",662,38.5264,-7.91148,,,,"PT",,
"NC96_B",7787,38.5087,-7.95632,,,,"PT",,
"NC96_D",7789,38.5448,-7.95561,,,,"PT",,
"NC96_G",7792,38.5085,-7.93339,,,,"PT",,
"NC96_P",7800,38.5622,-7.90937,,,,"PT",,
"NC96_T",7804,38.5439,-7.8868,,,,"PT",,
"NC96_U",7805,38.5619,-7.88643,,,,"PT",,
"NC96_W",7807,38.5076,-7.86461,,,,"PT",,
"NC97",681,38.6165,-7.91012,,,,"PT",,
"NC97_Q",7826,38.58,-7.88606,,,,"PT",,
"NC99",723,38.7967,-7.90738,,,,"PT",,
"NC99_A",7861,38.7604,-7.95338,,,,"PT",,
"NC99_H",7868,38.7961,-7.92966,,,,"PT",,
"NC99_N",7874,38.8139,-7.90628,,,,"PT",,
"NC99_R",7877,38.7776,-7.88399,,,,"PT",,
"NC99_V",7881,38.7593,-7.86135,,,,"PT",,
"NC99_X",7883,38.7953,-7.8606,,,,"PT",,
"ND01_D",7914,38.9982,-8.98865,,,,"PT",,
"ND01_F",7916,38.9443,-8.96536,,,,"PT",,
"ND01_H",7918,38.9803,-8.9655,,,,"PT",,
"ND01_L",7922,38.9623,-8.94235,,,,"PT",,
"ND01_R",7927,38.9624,-8.91928,,,,"PT",,
"ND01_W",7932,38.9624,-8.8962,,,,"PT",,
"ND01_Z",7935,39.0165,-8.89636,,,,"PT",,
"ND02_E",7940,39.1063,-8.9891,,,,"PT",,
"ND03",802,39.1623,-8.94346,,,,"PT",,
"ND04_A",7986,39.2144,-8.98956,,,,"PT",,
"ND04_I",7994,39.2685,-8.96661,,,,"PT",,
"ND04_T",8004,39.2686,-8.92027,,,,"PT",,
"ND04_V",8006,39.2146,-8.89693,,,,"PT",,
"ND04_X",8008,39.2506,-8.89704,,,,"PT",,
"ND04_Z",8010,39.2867,-8.89715,,,,"PT",,
"ND06_F",8041,39.3945,-8.96414,,,,"PT",,
"ND06_N",8049,39.4486,-8.94108,,,,"PT",,
"ND06_Q",8051,39.3945,-8.91771,,,,"PT",,
"ND06_S",8053,39.4306,-8.9178,,,,"PT",,
"ND06_W",8057,39.4126,-8.89453,,,,"PT",,
"ND06_Z",8060,39.4666,-8.89465,,,,"PT",,
"ND07_L",8072,39.5026,-8.94123,,,,"PT",,
"ND08_E",8090,39.6466,-8.98825,,,,"PT",,
"ND09_A",8111,39.6646,-8.98831,,,,"PT",,
"ND09_D",8114,39.7186,-8.9885,,,,"PT",,
"ND09_H",8118,39.7007,-8.96512,,,,"PT",,
"ND09_J",8120,39.7367,-8.96524,,,,"PT",,
"ND09_K",8121,39.6647,-8.9417,,,,"PT",,
"ND09_W",8132,39.6828,-8.89513,,,,"PT",,
"ND10",737,38.8918,-8.82837,,,,"PT",,
"ND10_B",8137,38.8724,-8.8729,,,,"PT",,
"ND10_C",8138,38.8904,-8.87295,,,,"PT",,
"ND10_F",8141,38.8544,-8.84982,,,,"PT",,
"ND10_G",8142,38.8724,-8.84986,,,,"PT",,
"ND10_I",8144,38.9084,-8.84994,,,,"PT",,
"ND10_M",8148,38.8904,-8.82685,,,,"PT",,
"ND10_R",8152,38.8725,-8.80377,,,,"PT",,
"ND10_V",8156,38.8545,-8.7807,,,,"PT",,
"ND11_D",8164,38.9985,-8.87322,,,,"PT",,
"ND11_I",8169,38.9985,-8.85013,,,,"PT",,
"ND11_K",8171,38.9445,-8.82695,,,,"PT",,
"ND11_N",8174,38.9985,-8.82705,,,,"PT",,
"ND11_R",8177,38.9625,-8.80391,,,,"PT",,
"ND11_T",8179,38.9986,-8.80396,,,,"PT",,
"ND11_V",8181,38.9445,-8.78081,,,,"PT",,
"ND11_Y",8184,38.9986,-8.78088,,,,"PT",,
"ND12_C",8188,39.0705,-8.87341,,,,"PT",,
"ND12_G",8192,39.0526,-8.85026,,,,"PT",,
"ND12_J",8195,39.1066,-8.85038,,,,"PT",,
"ND12_K",8196,39.0346,-8.82712,,,,"PT",,
"ND12_S",8203,39.0706,-8.80408,,,,"PT",,
"ND12_W",8207,39.0526,-8.78094,,,,"PT",,
"ND13_E",8215,39.1966,-8.87373,,,,"PT",,
"ND14_X",8258,39.2508,-8.7812,,,,"PT",,
"ND15_E",8265,39.3766,-8.87125,,,,"PT",,
"ND15_K",8271,39.3046,-8.82474,,,,"PT",,
"ND15_R",8277,39.3226,-8.80157,,,,"PT",,
"ND15_T",8279,39.3586,-8.8016,,,,"PT",,
"ND15_V",8281,39.3046,-8.77837,,,,"PT",,
"ND15_X",8283,39.3406,-8.77839,,,,"PT",,
"ND19_E",8365,39.7369,-8.87192,,,,"PT",,
"ND19_H",8368,39.7009,-8.84853,,,,"PT",,
"ND19_J",8370,39.7369,-8.84859,,,,"PT",,
"ND19_Q",8376,39.6649,-8.80186,,,,"PT",,
"ND19_S",8378,39.7009,-8.80189,,,,"PT",,
"ND19_U",8380,39.7369,-8.80193,,,,"PT",,
"ND19_W",8382,39.6829,-8.77857,,,,"PT",,
"ND22",782,39.0718,-8.71234,,,,"PT",,
"ND22_B",2148,39.052293,-8.757515,,,,"PT",,
"ND22_C",2149,39.070316,-8.757453,,,,"PT",,
"ND22_F",8438,39.0346,-8.73473,,,,"PT",,
"ND22_I",8441,39.0887,-8.73476,,,,"PT",,
"ND22_L",8444,39.0527,-8.71163,,,,"PT",,
"ND22_U",8452,39.1067,-8.68853,,,,"PT",,
"ND22_Y",8456,39.0887,-8.66541,,,,"PT",,
"ND24",826,39.252,-8.7116,,,,"PT",,
"ND24_H",8490,39.2508,-8.73486,,,,"PT",,
"ND24_X",8505,39.2508,-8.66535,,,,"PT",,
"ND25_I",8516,39.3587,-8.73199,,,,"PT",,
"ND25_K",8518,39.3046,-8.70881,,,,"PT",,
"ND25_M",8520,39.3406,-8.70879,,,,"PT",,
"ND25_T",8526,39.3586,-8.68558,,,,"PT",,
"ND25_X",8530,39.3406,-8.66239,,,,"PT",,
"ND25_Z",8532,39.3766,-8.66235,,,,"PT",,
"ND26_E",8537,39.4667,-8.75521,,,,"PT",,
"ND26_G",8539,39.4127,-8.73198,,,,"PT",,
"ND26_N",8546,39.4487,-8.70874,,,,"PT",,
"ND26_R",8549,39.4127,-8.68553,,,,"PT",,
"ND26_U",8552,39.4667,-8.68549,,,,"PT",,
"ND26_X",8555,39.4307,-8.66229,,,,"PT",,
"ND27_R",8574,39.5027,-8.68546,,,,"PT",,
"ND28_B",8584,39.5928,-8.75523,,,,"PT",,
"ND28_D",8586,39.6289,-8.75524,,,,"PT",,
"ND28_F",8588,39.5748,-8.73195,,,,"PT",,
"ND28_R",8599,39.5928,-8.68539,,,,"PT",,
"ND28_T",8601,39.6288,-8.68536,,,,"PT",,
"ND28_Z",8607,39.6468,-8.66204,,,,"PT",,
"ND30",739,38.8912,-8.59776,,,,"PT",,
"ND31_A",8658,38.9446,-8.6424,,,,"PT",,
"ND31_E",8662,39.0166,-8.64235,,,,"PT",,
"ND31_H",8665,38.9806,-8.61929,,,,"PT",,
"ND31_K",8668,38.9445,-8.59626,,,,"PT",,
"ND31_S",8675,38.9805,-8.57313,,,,"PT",,
"ND31_W",8679,38.9625,-8.55008,,,,"PT",,
"ND32_U",8702,39.1066,-8.57292,,,,"PT",,
"ND34_A",8733,39.2148,-8.64221,,,,"PT",,
"ND34_B",8734,39.2328,-8.64219,,,,"PT",,
"ND34_C",8735,39.2508,-8.64218,,,,"PT",,
"ND34_E",8737,39.2868,-8.64216,,,,"PT",,
"ND34_F",8738,39.2148,-8.61905,,,,"PT",,
"ND34_L",8744,39.2328,-8.59587,,,,"PT",,
"ND34_M",8745,39.2508,-8.59584,,,,"PT",,
"ND34_N",8746,39.2688,-8.59582,,,,"PT",,
"ND34_W",8754,39.2327,-8.54954,,,,"PT",,
"ND37_C",8810,39.5207,-8.63893,,,,"PT",,
"ND37_E",8812,39.5568,-8.63887,,,,"PT",,
"ND37_F",8813,39.4847,-8.61573,,,,"PT",,
"ND37_H",8815,39.5207,-8.61567,,,,"PT",,
"ND37_M",8820,39.5207,-8.59241,,,,"PT",,
"ND37_S",8825,39.5206,-8.56915,,,,"PT",,
"ND37_U",8827,39.5567,-8.56906,,,,"PT",,
"ND37_V",8828,39.4846,-8.54599,,,,"PT",,
"ND39_A",8858,39.6648,-8.63872,,,,"PT",,
"ND39_D",8861,39.7189,-8.63864,,,,"PT",,
"ND39_G",8864,39.6828,-8.61538,,,,"PT",,
"ND39_P",8872,39.7368,-8.59195,,,,"PT",,
"ND39_T",8876,39.7188,-8.56866,,,,"PT",,
"ND39_V",8878,39.6647,-8.54549,,,,"PT",,
"ND40_D",8886,38.9084,-8.52713,,,,"PT",,
"ND40_F",8888,38.8543,-8.50422,,,,"PT",,
"ND40_J",8892,38.9264,-8.50403,,,,"PT",,
"ND40_M",8895,38.8903,-8.48107,,,,"PT",,
"ND40_N",8896,38.9083,-8.48102,,,,"PT",,
"ND40_P",8897,38.9264,-8.48097,,,,"PT",,
"ND40_Y",8906,38.9083,-8.43491,,,,"PT",,
"ND41",762,38.9809,-8.4818,,,,"PT",,
"ND46_A",9033,39.3945,-8.52303,,,,"PT",,
"ND46_B",9034,39.4125,-8.52297,,,,"PT",,
"ND46_D",9036,39.4485,-8.52286,,,,"PT",,
"ND46_K",9043,39.3944,-8.4766,,,,"PT",,
"ND46_L",9044,39.4124,-8.47653,,,,"PT",,
"ND46_M",9045,39.4304,-8.47646,,,,"PT",,
"ND46_T",9051,39.4484,-8.45316,,,,"PT",,
"ND46_V",9053,39.3943,-8.43016,,,,"PT",,
"ND48_I",9091,39.6286,-8.499,,,,"PT",,
"ND50_B",9134,38.8722,-8.41199,,,,"PT",,
"ND51_C",9160,38.9803,-8.41156,,,,"PT",,
"ND51_E",9162,39.0163,-8.41142,,,,"PT",,
"ND51_F",9163,38.9442,-8.38864,,,,"PT",,
"ND51_I",9166,38.9982,-8.3884,,,,"PT",,
"ND51_S",9175,38.9801,-8.34232,,,,"PT",,
"ND51_U",9177,39.0161,-8.34214,,,,"PT",,
"ND53_D",9211,39.1784,-8.41078,,,,"PT",,
"ND53_H",9215,39.1604,-8.38771,,,,"PT",,
"ND53_I",9216,39.1784,-8.38763,,,,"PT",,
"ND53_L",9219,39.1423,-8.36465,,,,"PT",,
"ND53_N",9221,39.1783,-8.36449,,,,"PT",,
"ND53_U",9227,39.1963,-8.34125,,,,"PT",,
"ND53_Y",9231,39.1782,-8.31819,,,,"PT",,
"ND57",885,39.5209,-8.36147,,,,"PT",,
"ND57_D",9311,39.5383,-8.40625,,,,"PT",,
"ND57_G",9314,39.5022,-8.38317,,,,"PT",,
"ND57_M",9320,39.5201,-8.35982,,,,"PT",,
"ND57_P",9322,39.5562,-8.35963,,,,"PT",,
"ND57_Q",9323,39.484,-8.33677,,,,"PT",,
"ND57_Y",9331,39.538,-8.3132,,,,"PT",,
"ND58",901,39.611,-8.36064,,,,"PT",,
"ND58_R",9349,39.5921,-8.33615,,,,"PT",,
"ND59_J",9367,39.7364,-8.38197,,,,"PT",,
"ND59_S",9375,39.7002,-8.33552,,,,"PT",,
"ND59_U",9377,39.7362,-8.33531,,,,"PT",,
"ND61",764,38.9796,-8.25092,,,,"PT",,
"ND61_B",9409,38.9619,-8.29626,,,,"PT",,
"ND61_D",9411,38.9979,-8.29606,,,,"PT",,
"ND61_J",9417,39.0159,-8.27286,,,,"PT",,
"ND61_M",9420,38.9798,-8.25,,,,"PT",,
"ND61_W",9429,38.9616,-8.20396,,,,"PT",,
"ND61_Y",9431,38.9976,-8.20371,,,,"PT",,
"ND62_L",9444,39.0518,-8.24955,,,,"PT",,
"ND62_P",9447,39.1059,-8.24921,,,,"PT",,
"ND62_Q",9448,39.0337,-8.22656,,,,"PT",,
"ND62_T",9451,39.0878,-8.22621,,,,"PT",,
"ND62_W",9454,39.0516,-8.20334,,,,"PT",,
"ND62_Z",9457,39.1057,-8.20297,,,,"PT",,
"ND64",830,39.25,-8.24805,,,,"PT",,
"ND64_C",9485,39.2501,-8.29464,,,,"PT",,
"ND64_F",9488,39.214,-8.27169,,,,"PT",,
"ND64_J",9492,39.2861,-8.27126,,,,"PT",,
"ND64_Q",9498,39.2139,-8.22537,,,,"PT",,
"ND64_X",9505,39.2498,-8.20197,,,,"PT",,
"ND64_Z",9507,39.2858,-8.20172,,,,"PT",,
"ND66",869,39.4302,-8.24611,,,,"PT",,
"ND66_H",9540,39.4297,-8.2674,,,,"PT",,
"ND66_L",9544,39.4116,-8.2443,,,,"PT",,
"ND66_P",9547,39.4657,-8.24392,,,,"PT",,
"ND66_Q",9548,39.3935,-8.22122,,,,"PT",,
"ND66_S",9550,39.4295,-8.22095,,,,"PT",,
"ND66_X",9555,39.4294,-8.19772,,,,"PT",,
"ND66_Y",9556,39.4474,-8.19758,,,,"PT",,
"ND66_Z",9557,39.4655,-8.19744,,,,"PT",,
"ND69",918,39.7004,-8.24318,,,,"PT",,
"ND70",743,38.8887,-8.13657,,,,"PT",,
"ND70_B",9634,38.871,-8.1817,,,,"PT",,
"ND70_F",9638,38.8527,-8.15896,,,,"PT",,
"ND70_H",9640,38.8888,-8.15836,,,,"PT",,
"ND70_L",9644,38.8705,-8.13562,,,,"PT",,
"ND70_Q",9648,38.8523,-8.11289,,,,"PT",,
"ND70_X",9655,38.8881,-8.08921,,,,"PT",,
"ND70_Z",9657,38.9241,-8.08858,,,,"PT",,
"ND71",765,38.9788,-8.13548,,,,"PT",,
"ND71_B",9659,38.9611,-8.18023,,,,"PT",,
"ND71_E",9662,39.0151,-8.17935,,,,"PT",,
"ND71_I",9666,38.9969,-8.15656,,,,"PT",,
"ND71_R",9674,38.9604,-8.11102,,,,"PT",,
"ND71_T",9676,38.9964,-8.11039,,,,"PT",,
"ND71_X",9680,38.9781,-8.08763,,,,"PT",,
"ND73",809,39.1591,-8.13328,,,,"PT",,
"ND73_B",9709,39.1412,-8.17728,,,,"PT",,
"ND73_G",9714,39.141,-8.15415,,,,"PT",,
"ND73_I",9716,39.177,-8.15355,,,,"PT",,
"ND73_K",9718,39.1227,-8.13133,,,,"PT",,
"ND73_M",9720,39.1587,-8.13071,,,,"PT",,
"ND73_R",9724,39.1405,-8.10789,,,,"PT",,
"ND73_X",9730,39.1583,-8.08444,,,,"PT",,
"ND75_Z",9782,39.3748,-8.08209,,,,"PT",,
"ND76_C",9785,39.4293,-8.17449,,,,"PT",,
"ND77_Q",9823,39.483,-8.10431,,,,"PT",,
"ND79_F",9863,39.6634,-8.14927,,,,"PT",,
"ND79_L",9869,39.6813,-8.12581,,,,"PT",,
"ND79_S",9875,39.6992,-8.10233,,,,"PT",,
"ND80",744,38.8878,-8.02128,,,,"PT",,
"ND80_E",9887,38.9238,-8.06552,,,,"PT",,
"ND80_H",9890,38.8875,-8.04312,,,,"PT",,
"ND80_K",9893,38.8513,-8.02074,,,,"PT",,
"ND80_N",9896,38.9053,-8.01973,,,,"PT",,
"ND80_U",9902,38.9231,-7.99634,,,,"PT",,
"ND80_X",9905,38.8868,-7.97397,,,,"PT",,
"ND81",766,38.9779,-8.02004,,,,"PT",,
"ND81_A",9908,38.9418,-8.06519,,,,"PT",,
"ND81_L",9919,38.9593,-8.01873,,,,"PT",,
"ND81_N",9921,38.9954,-8.01806,,,,"PT",,
"ND81_Q",9923,38.9411,-7.996,,,,"PT",,
"ND81_S",9925,38.9771,-7.99531,,,,"PT",,
"ND81_Z",9932,39.0129,-7.97154,,,,"PT",,
"ND84",832,39.2482,-8.01629,,,,"PT",,
"ND84_B",9984,39.2301,-8.06,,,,"PT",,
"ND84_D",9986,39.2661,-8.05935,,,,"PT",,
"ND84_F",9988,39.2118,-8.03717,,,,"PT",,
"ND84_H",9990,39.2478,-8.03651,,,,"PT",,
"ND84_N",9996,39.2656,-8.013,,,,"PT",,
"ND84_S",10000,39.2473,-7.99017,,,,"PT",,
"ND86_B",10034,39.4099,-8.05998,,,,"PT",,
"ND86_F",10038,39.3917,-8.03705,,,,"PT",,
"ND86_J",10042,39.4637,-8.0359,,,,"PT",,
"ND86_N",10046,39.4455,-8.01295,,,,"PT",,
"ND86_S",10050,39.4272,-7.99002,,,,"PT",,
"ND86_U",10052,39.4633,-7.98942,,,,"PT",,
"ND87_M",10070,39.5175,-8.01178,,,,"PT",,
"ND90",745,38.8868,-7.906,,,,"PT",,
"ND91",767,38.9769,-7.90462,,,,"PT",,
"ND91_A",10158,38.9405,-7.94987,,,,"PT",,
"ND91_D",10161,38.9946,-7.94881,,,,"PT",,
"ND91_E",10162,39.0126,-7.94845,,,,"PT",,
"ND91_G",10164,38.9583,-7.92644,,,,"PT",,
"ND91_J",10167,39.0123,-7.92536,,,,"PT",,
"ND91_N",10171,38.994,-7.90264,,,,"PT",,
"ND91_P",10172,39.012,-7.90228,,,,"PT",,
"ND91_R",10174,38.9577,-7.8803,,,,"PT",,
"ND91_V",10178,38.9394,-7.8576,,,,"PT",,
"ND91_X",10180,38.9754,-7.85685,,,,"PT",,
"ND91_Z",10182,39.0114,-7.8561,,,,"PT",,
"ND92",789,39.067,-7.90323,,,,"PT",,
"ND92_F",10188,39.0303,-7.925,,,,"PT",,
"ND92_I",10191,39.0844,-7.92392,,,,"PT",,
"ND92_L",10194,39.048,-7.90154,,,,"PT",,
"ND92_P",10197,39.1021,-7.90045,,,,"PT",,
"ND92_T",10201,39.0838,-7.8777,,,,"PT",,
"ND92_W",10204,39.0475,-7.85534,,,,"PT",,
"ND95_E",10262,39.3727,-7.94451,,,,"PT",,
"ND95_G",10264,39.3184,-7.92225,,,,"PT",,
"ND95_K",10268,39.3002,-7.89938,,,,"PT",,
"ND95_M",10270,39.3362,-7.89874,,,,"PT",,
"ND95_P",10272,39.3722,-7.89809,,,,"PT",,
"ND95_X",10280,39.3357,-7.85234,,,,"PT",,
"ND97_A",10308,39.4808,-7.94264,,,,"PT",,
"ND97_B",10309,39.4988,-7.94232,,,,"PT",,
"ND97_E",10312,39.5528,-7.94139,,,,"PT",,
"ND97_I",10316,39.5346,-7.91844,,,,"PT",,
"ND97_K",10318,39.4803,-7.89615,,,,"PT",,
"ND97_L",10319,39.4983,-7.89583,,,,"PT",,
"ND97_R",10324,39.4981,-7.87258,,,,"PT",,
"ND97_Y",10331,39.5338,-7.84865,,,,"PT",,
"ND98_Z",10357,39.6419,-7.84663,,,,"PT",,
"ND99_A",10358,39.6609,-7.93951,,,,"PT",,
"ND99_C",10360,39.6969,-7.93888,,,,"PT",,
"ND99_E",10362,39.733,-7.93825,,,,"PT",,
"ND99_I",10366,39.7147,-7.91524,,,,"PT",,
"ND99_L",10369,39.6784,-7.89257,,,,"PT",,
"ND99_Q",10373,39.6602,-7.8696,,,,"PT",,
"ND99_S",10375,39.6962,-7.86893,,,,"PT",,
"ND99_Y",10381,39.7139,-7.84528,,,,"PT",,
"NE00_A",10383,39.7547,-8.98863,,,,"PT",,
"NE00_C",10385,39.7907,-8.98876,,,,"PT",,
"NE00_J",10392,39.8268,-8.96553,,,,"PT",,
"NE00_S",10400,39.7908,-8.91872,,,,"PT",,
"NE00_W",10404,39.7728,-8.89533,,,,"PT",,
"NE00_Y",10406,39.8089,-8.89541,,,,"PT",,
"NE10_K",10468,39.7549,-8.82528,,,,"PT",,
"NE11_B",10484,39.8629,-8.87216,,,,"PT",,
"NE11_E",10487,39.917,-8.87227,,,,"PT",,
"NE11_I",10491,39.899,-8.84885,,,,"PT",,
"NE11_Q",10498,39.845,-8.80203,,,,"PT",,
"NE11_U",10502,39.917,-8.80209,,,,"PT",,
"NE11_Y",10506,39.899,-8.77869,,,,"PT",,
"NE13_A",10533,40.0265,-8.87252,,,,"PT",,
"NE13_D",10536,40.0806,-8.87229,,,,"PT",,
"NE13_H",10540,40.0625,-8.84893,,,,"PT",,
"NE13_M",10545,40.0624,-8.82549,,,,"PT",,
"NE13_U",10552,40.0984,-8.80185,,,,"PT",,
"NE13_W",10554,40.0443,-8.77871,,,,"PT",,
"NE14_G",10564,40.1345,-8.84859,,,,"PT",,
"NE14_L",10569,40.1345,-8.82512,,,,"PT",,
"NE22_N",10746,39.9891,-8.7085,,,,"PT",,
"NE22_Z",10757,40.0071,-8.66165,,,,"PT",,
"NE24_W",10804,40.1339,-8.66086,,,,"PT",,
"NE28_E",10887,40.5485,-8.75222,,,,"PT",,
"NE28_F",10888,40.4763,-8.72907,,,,"PT",,
"NE28_H",10890,40.5124,-8.72884,,,,"PT",,
"NE28_L",10894,40.4943,-8.70537,,,,"PT",,
"NE28_Q",10898,40.4762,-8.6819,,,,"PT",,
"NE28_R",10899,40.4942,-8.68178,,,,"PT",,
"NE28_T",10901,40.5302,-8.68152,,,,"PT",,
"NE28_U",10902,40.5482,-8.68139,,,,"PT",,
"NE28_V",10903,40.4761,-8.65832,,,,"PT",,
"NE28_Y",10906,40.5301,-8.65792,,,,"PT",,
"NE31_L",10969,39.8629,-8.59168,,,,"PT",,
"NE31_N",10971,39.8989,-8.5916,,,,"PT",,
"NE31_Y",10981,39.8989,-8.54483,,,,"PT",,
"NE33_A",11008,40.0257,-8.63824,,,,"PT",,
"NE33_E",11012,40.0977,-8.63768,,,,"PT",,
"NE33_G",11014,40.0436,-8.61466,,,,"PT",,
"NE33_H",11015,40.0616,-8.61452,,,,"PT",,
"NE33_I",11016,40.0796,-8.61437,,,,"PT",,
"NE33_K",11018,40.0255,-8.59138,,,,"PT",,
"NE33_W",11029,40.0432,-8.54436,,,,"PT",,
"NE40_K",11193,39.7546,-8.47522,,,,"PT",,
"NE40_R",11199,39.7726,-8.45181,,,,"PT",,
"NE40_T",11201,39.8086,-8.45166,,,,"PT",,
"NE42_F",11238,39.9348,-8.49794,,,,"PT",,
"NE42_L",11244,39.9528,-8.47447,,,,"PT",,
"NE42_N",11246,39.9888,-8.47433,,,,"PT",,
"NE44_B",11284,40.1332,-8.52007,,,,"PT",,
"NE44_D",11286,40.1692,-8.51973,,,,"PT",,
"NE44_K",11293,40.1149,-8.47332,,,,"PT",,
"NE44_V",11303,40.1146,-8.4264,,,,"PT",,
"NE44_X",11305,40.1506,-8.42601,,,,"PT",,
"NE44_Z",11307,40.1866,-8.42562,,,,"PT",,
"NE45_A",11308,40.2052,-8.51938,,,,"PT",,
"NE45_C",11310,40.2412,-8.51904,,,,"PT",,
"NE45_F",11313,40.2051,-8.49589,,,,"PT",,
"NE45_G",11314,40.2231,-8.49572,,,,"PT",,
"NE45_H",11315,40.2411,-8.49554,,,,"PT",,
"NE45_L",11319,40.2229,-8.47222,,,,"PT",,
"NE45_M",11320,40.241,-8.47204,,,,"PT",,
"NE45_P",11322,40.277,-8.47167,,,,"PT",,
"NE45_Q",11323,40.2048,-8.44891,,,,"PT",,
"NE45_R",11324,40.2228,-8.44872,,,,"PT",,
"NE45_T",11326,40.2588,-8.44834,,,,"PT",,
"NE45_V",11328,40.2046,-8.42542,,,,"PT",,
"NE45_Z",11332,40.2767,-8.42464,,,,"PT",,
"NE46_C",11335,40.3313,-8.51819,,,,"PT",,
"NE46_G",11339,40.3131,-8.49483,,,,"PT",,
"NE46_K",11343,40.295,-8.47149,,,,"PT",,
"NE46_S",11350,40.3309,-8.44758,,,,"PT",,
"NE46_U",11352,40.3669,-8.4472,,,,"PT",,
"NE46_Y",11356,40.3487,-8.42385,,,,"PT",,
"NE49_F",11413,40.5653,-8.49234,,,,"PT",,
"NE50",936,39.7912,-8.35898,,,,"PT",,
"NE51_B",11459,39.8625,-8.40469,,,,"PT",,
"NE51_I",11466,39.8985,-8.38113,,,,"PT",,
"NE51_M",11470,39.8804,-8.35784,,,,"PT",,
"NE51_T",11476,39.8983,-8.33436,,,,"PT",,
"NE51_X",11480,39.8802,-8.31108,,,,"PT",,
"NE51_Z",11482,39.9163,-8.31086,,,,"PT",,
"NE52",974,39.9714,-8.3573,,,,"PT",,
"NE53",993,40.0615,-8.35645,,,,"PT",,
"NE53_E",11512,40.0964,-8.40315,,,,"PT",,
"NE53_I",11516,40.0783,-8.3799,,,,"PT",,
"NE53_K",11518,40.0241,-8.35709,,,,"PT",,
"NE53_P",11522,40.0961,-8.35624,,,,"PT",,
"NE53_R",11524,40.0419,-8.33345,,,,"PT",,
"NE53_T",11526,40.0779,-8.33301,,,,"PT",,
"NE60",937,39.7905,-8.24219,,,,"PT",,
"NE60_B",11684,39.7721,-8.28841,,,,"PT",,
"NE60_H",11690,39.79,-8.26494,,,,"PT",,
"NE60_Q",11698,39.7538,-8.21852,,,,"PT",,
"NE61",956,39.8806,-8.2412,,,,"PT",,
"NE62",975,39.9707,-8.24021,,,,"PT",,
"NE63",994,40.0608,-8.23921,,,,"PT",,
"NE63_K",11768,40.0232,-8.23996,,,,"PT",,
"NE63_M",11770,40.0592,-8.23947,,,,"PT",,
"NE63_Q",11773,40.023,-8.21653,,,,"PT",,
"NE63_R",11774,40.041,-8.21628,,,,"PT",,
"NE63_S",11775,40.059,-8.21603,,,,"PT",,
"NE63_X",11780,40.0588,-8.19259,,,,"PT",,
"NE64",1013,40.1509,-8.2382,,,,"PT",,
"NE64_B",11784,40.1316,-8.28542,,,,"PT",,
"NE64_D",11786,40.1676,-8.28495,,,,"PT",,
"NE64_P",11797,40.1853,-8.23775,,,,"PT",,
"NE64_Q",11798,40.113,-8.21527,,,,"PT",,
"NE64_S",11800,40.1491,-8.21477,,,,"PT",,
"NE64_W",11804,40.1309,-8.19156,,,,"PT",,
"NE71_E",11962,39.9157,-8.17051,,,,"PT",,
"NE71_I",11966,39.8975,-8.14727,,,,"PT",,
"NE71_P",11972,39.9154,-8.12373,,,,"PT",,
"NE71_R",11974,39.8613,-8.10084,,,,"PT",,
"NE71_T",11976,39.8973,-8.1005,,,,"PT",,
"NE71_Z",11982,39.9152,-8.07694,,,,"PT",,
"NE73_D",12011,40.0766,-8.16888,,,,"PT",,
"NE73_E",12012,40.0946,-8.16862,,,,"PT",,
"NE73_I",12016,40.0764,-8.14544,,,,"PT",,
"NE74_F",12038,40.1124,-8.1449,,,,"PT",,
"NE75_C",12060,40.2387,-8.16651,,,,"PT",,
"NE80_B",12184,39.7701,-8.05432,,,,"PT",,
"NE80_E",12187,39.8242,-8.05347,,,,"PT",,
"NE80_F",12188,39.7519,-8.03127,,,,"PT",,
"NE80_H",12190,39.7879,-8.03069,,,,"PT",,
"NE80_L",12194,39.7697,-8.00764,,,,"PT",,
"NE80_P",12197,39.8237,-8.00675,,,,"PT",,
"NE80_S",12200,39.7875,-7.984,,,,"PT",,
"NE82_D",12236,39.9863,-8.0509,,,,"PT",,
"NE82_J",12242,40.0041,-8.02719,,,,"PT",,
"NE82_M",12245,39.9678,-8.00437,,,,"PT",,
"NE82_R",12249,39.9496,-7.98126,,,,"PT",,
"NE82_U",12252,40.0036,-7.98035,,,,"PT",,
"NE82_X",12255,39.9673,-7.95755,,,,"PT",,
"NE85_B",12309,40.2196,-8.0493,,,,"PT",,
"NE85_P",12322,40.2732,-8.00139,,,,"PT",,
"NE85_X",12330,40.2367,-7.955,,,,"PT",,
"NE91_H",12465,39.8768,-7.91235,,,,"PT",,
"NE91_J",12467,39.9128,-7.9117,,,,"PT",,
"NE91_N",12471,39.8946,-7.88864,,,,"PT",,
"NE91_Q",12473,39.8403,-7.86626,,,,"PT",,
"NE91_S",12475,39.8763,-7.8656,,,,"PT",,
"NE91_W",12479,39.858,-7.84256,,,,"PT",,
"NE93_U",12527,40.0916,-7.86376,,,,"PT",,
"NE99_U",12677,40.6319,-7.85335,,,,"PT",,
"Nespereira, Gouveia",27444,40.510567,-7.602708,,,,"PT",,
"NF18_X",26870,41.4127746114,-8.7727053846,,,,"PT",,
"NF18_Z",26862,41.4488034229,-8.772579676,,,,"PT",,
"NF19_S",12700,41.5036,-8.79687,,,,"PT",,
"NF19_T",12701,41.5216,-8.79676,,,,"PT",,
"NF19_U",12702,41.5396,-8.79665,,,,"PT",,
"NF19_W",12704,41.4855,-8.77303,,,,"PT",,
"NF19_X",12705,41.5035,-8.77292,,,,"PT",,
"NF19_Y",12706,41.5215,-8.7728,,,,"PT",,
"NF21_Q",12748,40.7463,-8.68056,,,,"PT",,
"NF21_R",12749,40.7643,-8.68046,,,,"PT",,
"NF21_S",12750,40.7823,-8.68035,,,,"PT",,
"NF21_V",12753,40.7462,-8.65688,,,,"PT",,
"NF21_W",12754,40.7643,-8.65677,,,,"PT",,
"NF21_X",12755,40.7823,-8.65666,,,,"PT",,
"NF22_Q",12773,40.8364,-8.68004,,,,"PT",,
"NF22_R",12774,40.8544,-8.67994,,,,"PT",,
"NF22_V",12778,40.8363,-8.65633,,,,"PT",,
"NF22_W",12779,40.8543,-8.65622,,,,"PT",,
"NF22_X",12780,40.8723,-8.65611,,,,"PT",,
"NF22_Y",12781,40.8903,-8.656,,,,"PT",,
"NF22_Z",12782,40.9083,-8.65589,,,,"PT",,
"NF23_V",26869,40.926069952,-8.6556159757,,,,"PT",,
"NF23_W",26861,40.9440857283,-8.6555224013,,,,"PT",,
"NF23_X",26855,40.9621014479,-8.6554287421,,,,"PT",,
"NF24_V",26865,41.0161482671,-8.6551472548,,,,"PT",,
"NF24_Y",26859,41.0701945766,-8.654865001,,,,"PT",,
"NF25",1201,41.144,-8.70347,,,,"PT",,
"NF25_P",12797,41.1786,-8.7019,,,,"PT",,
"NF25_R",12799,41.1245,-8.67838,,,,"PT",,
"NF25_T",12801,41.1605,-8.67817,,,,"PT",,
"NF25_V",12803,41.1064,-8.65467,,,,"PT",,
"NF25_X",12805,41.1424,-8.65445,,,,"PT",,
"NF25_Y",12806,41.1605,-8.65434,,,,"PT",,
"NF25_Z",12807,41.1785,-8.65423,,,,"PT",,
"NF26_S",12825,41.2326,-8.67775,,,,"PT",,
"NF26_U",12827,41.2686,-8.67754,,,,"PT",,
"NF26_Y",12831,41.2505,-8.65378,,,,"PT",,
"NF27 _I",27575,41.3501666667,-8.733,,,,"PT",,
"NF27_B",12834,41.3048,-8.74897,,,,"PT",,
"NF27_C",12835,41.3228,-8.74889,,,,"PT",,
"NF27_D",12836,41.3408,-8.74881,,,,"PT",,
"NF27_D",27576,41.3461666667,-8.742,,,,"PT",,
"NF27_E",12837,41.3588,-8.74872,,,,"PT",,
"NF27_F",12838,41.2867,-8.72518,,,,"PT",,
"NF27_H",12840,41.3227,-8.725,,,,"PT",,
"NF27_K",12843,41.2867,-8.70131,,,,"PT",,
"NF27_N",12846,41.3407,-8.70102,,,,"PT",,
"NF27_P",12847,41.3587,-8.70092,,,,"PT",,
"NF27_Q",12848,41.2866,-8.67744,,,,"PT",,
"NF27_R",12849,41.3046,-8.67733,,,,"PT",,
"NF27_S",12850,41.3226,-8.67723,,,,"PT",,
"NF27_T",12851,41.3406,-8.67712,,,,"PT",,
"NF28_A",12858,41.3768,-8.74864,,,,"PT",,
"NF28_B",12859,41.3948,-8.74855,,,,"PT",,
"NF28_G",12864,41.3948,-8.72464,,,,"PT",,
"NF28_H",12865,41.4128,-8.72455,,,,"PT",,
"NF28_I",12866,41.4308,-8.72446,,,,"PT",,
"NF28_K",12868,41.3767,-8.70082,,,,"PT",,
"NF28_L",12869,41.3947,-8.70073,,,,"PT",,
"NF28_R",12874,41.3946,-8.67681,,,,"PT",,
"NF28_T",12876,41.4306,-8.6766,,,,"PT",,
"NF28_V",12878,41.3765,-8.65301,,,,"PT",,
"NF30",1117,40.6932,-8.58712,,,,"PT",,
"NF30_L",12919,40.6738,-8.58588,,,,"PT",,
"NF30_P",12922,40.7279,-8.58542,,,,"PT",,
"NF30_S",12925,40.6917,-8.56207,,,,"PT",,
"NF31_E",12937,40.8182,-8.63274,,,,"PT",,
"NF31_F",12938,40.7461,-8.60952,,,,"PT",,
"NF31_I",12941,40.8001,-8.60915,,,,"PT",,
"NF31_P",12947,40.818,-8.58532,,,,"PT",,
"NF31_R",12949,40.7639,-8.56203,,,,"PT",,
"NF31_Y",12956,40.7998,-8.53806,,,,"PT",,
"NF33_B",12984,40.9443,-8.63192,,,,"PT",,
"NF33_C",12985,40.9623,-8.6318,,,,"PT",,
"NF33_D",12986,40.9803,-8.63168,,,,"PT",,
"NF33_E",12987,40.9983,-8.63156,,,,"PT",,
"NF33_F",12988,40.9262,-8.60829,,,,"PT",,
"NF33_G",12989,40.9442,-8.60816,,,,"PT",,
"NF33_H",12990,40.9622,-8.60804,,,,"PT",,
"NF33_J",12992,40.9982,-8.60779,,,,"PT",,
"NF33_L",12994,40.9441,-8.58441,,,,"PT",,
"NF33_Q",12998,40.926,-8.5608,,,,"PT",,
"NF33_R",12999,40.944,-8.56066,,,,"PT",,
"NF33_V",13003,40.9259,-8.53706,,,,"PT",,
"NF34_A",13008,41.0163,-8.63145,,,,"PT",,
"NF34_D",13011,41.0703,-8.6311,,,,"PT",,
"NF34_H",13015,41.0522,-8.60742,,,,"PT",,
"NF34_L",13019,41.0341,-8.58376,,,,"PT",,
"NF34_N",13021,41.0701,-8.5835,,,,"PT",,
"NF34_U",13027,41.088,-8.55957,,,,"PT",,
"NF35_C",13035,41.1424,-8.63063,,,,"PT",,
"NF35_E",13037,41.1784,-8.63039,,,,"PT",,
"NF35_H",13040,41.1423,-8.6068,,,,"PT",,
"NF35_K",13043,41.1062,-8.58324,,,,"PT",,
"NF35_M",13045,41.1422,-8.58298,,,,"PT",,
"NF35_Q",13048,41.1061,-8.55944,,,,"PT",,
"NF35_R",13049,41.1241,-8.5593,,,,"PT",,
"NF35_T",13051,41.1601,-8.55903,,,,"PT",,
"NF35_X",13055,41.142,-8.53534,,,,"PT",,
"NF36_B",13059,41.2144,-8.63016,,,,"PT",,
"NF36_C",13060,41.2324,-8.63004,,,,"PT",,
"NF36_E",13062,41.2684,-8.62981,,,,"PT",,
"NF36_I",13066,41.2503,-8.60606,,,,"PT",,
"NF36_L",13069,41.2142,-8.58246,,,,"PT",,
"NF36_P",13072,41.2682,-8.58207,,,,"PT",,
"NF36_Q",13073,41.1961,-8.55875,,,,"PT",,
"NF36_T",13076,41.2501,-8.55834,,,,"PT",,
"NF37_C",13085,41.3224,-8.62945,,,,"PT",,
"NF37_F",13088,41.2863,-8.60581,,,,"PT",,
"NF37_H",27579,41.3321666667,-8.5971666667,,,,"PT",,
"NF37_J",13092,41.3584,-8.60532,,,,"PT",,
"NF37_N",13096,41.3403,-8.58155,,,,"PT",,
"NF37_S",13100,41.3221,-8.55779,,,,"PT",,
"NF37_V",13103,41.286,-8.53419,,,,"PT",,
"NF38_A",13108,41.3765,-8.6291,,,,"PT",,
"NF38_C",13110,41.4125,-8.62887,,,,"PT",,
"NF38_G",13114,41.3944,-8.60507,,,,"PT",,
"NF38_R",13124,41.3942,-8.55724,,,,"PT",,
"NF38_V",13128,41.3761,-8.53347,,,,"PT",,
"NF41_A",13183,40.7457,-8.5148,,,,"PT",,
"NF41_D",13186,40.7997,-8.51436,,,,"PT",,
"NF41_G",13189,40.7636,-8.49097,,,,"PT",,
"NF41_K",13193,40.7454,-8.46744,,,,"PT",,
"NF41_N",13196,40.7994,-8.46696,,,,"PT",,
"NF41_R",13199,40.7633,-8.4436,,,,"PT",,
"NF42_A",13208,40.8357,-8.51406,,,,"PT",,
"NF42_E",13212,40.9077,-8.51346,,,,"PT",,
"NF42_G",13214,40.8536,-8.49019,,,,"PT",,
"NF42_J",13217,40.9076,-8.48973,,,,"PT",,
"NF42_K",13218,40.8355,-8.46664,,,,"PT",,
"NF42_N",13221,40.8895,-8.46615,,,,"PT",,
"NF42_R",13224,40.8534,-8.44276,,,,"PT",,
"NF42_S",13225,40.8714,-8.44259,,,,"PT",,
"NF42_U",13227,40.9074,-8.44225,,,,"PT",,
"NF42_V",13228,40.8352,-8.41921,,,,"PT",,
"NF42_X",13230,40.8712,-8.41886,,,,"PT",,
"NF43_F",13238,40.9256,-8.48957,,,,"PT",,
"NF43_H",13240,40.9617,-8.48926,,,,"PT",,
"NF43_J",13242,40.9977,-8.48895,,,,"PT",,
"NF43_R",13249,40.9434,-8.44191,,,,"PT",,
"NF43_U",13252,40.9974,-8.44141,,,,"PT",,
"NF43_Y",13256,40.9793,-8.41781,,,,"PT",,
"NF44_B",13259,41.0338,-8.51242,,,,"PT",,
"NF44_D",13261,41.0698,-8.51212,,,,"PT",,
"NF44_F",13263,41.0157,-8.48879,,,,"PT",,
"NF44_H",13265,41.0517,-8.48848,,,,"PT",,
"NF44_I",13266,41.0697,-8.48832,,,,"PT",,
"NF44_L",13269,41.0336,-8.46485,,,,"PT",,
"NF44_P",13272,41.0876,-8.46436,,,,"PT",,
"NF45_F",13288,41.1057,-8.48801,,,,"PT",,
"NF45_H",13290,41.1417,-8.4877,,,,"PT",,
"NF45_J",13292,41.1778,-8.48738,,,,"PT",,
"NF45_S",13300,41.1415,-8.44005,,,,"PT",,
"NF45_V",13303,41.1053,-8.41658,,,,"PT",,
"NF45_Y",13306,41.1594,-8.41606,,,,"PT",,
"NF46_E",13312,41.2679,-8.51047,,,,"PT",,
"NF46_G",13314,41.2138,-8.48707,,,,"PT",,
"NF46_I",13316,41.2498,-8.48676,,,,"PT",,
"NF46_K",13318,41.1956,-8.46339,,,,"PT",,
"NF46_M",13320,41.2317,-8.46306,,,,"PT",,
"NF46_P",13322,41.2677,-8.46273,,,,"PT",,
"NF48_A",13358,41.376,-8.50957,,,,"PT",,
"NF48_C",13360,41.412,-8.50927,,,,"PT",,
"NF48_E",13362,41.448,-8.50896,,,,"PT",,
"NF48_I",13366,41.4299,-8.48519,,,,"PT",,
"NF48_M",13370,41.4117,-8.46143,,,,"PT",,
"NF48_T",13376,41.4296,-8.43734,,,,"PT",,
"NF51_K",13443,40.7447,-8.34905,,,,"PT",,
"NF51_M",13445,40.7808,-8.34866,,,,"PT",,
"NF53_E",13487,40.9972,-8.39387,,,,"PT",,
"NF53_G",13489,40.943,-8.37066,,,,"PT",,
"NF53_I",13491,40.979,-8.37029,,,,"PT",,
"NF53_M",13495,40.9609,-8.34672,,,,"PT",,
"NF53_P",13497,40.9969,-8.34633,,,,"PT",,
"NF53_T",13501,40.9787,-8.32276,,,,"PT",,
"NF54_C",13510,41.0512,-8.39332,,,,"PT",,
"NF54_D",13511,41.0692,-8.39314,,,,"PT",,
"NF54_E",13512,41.0872,-8.39296,,,,"PT",,
"NF54_I",13516,41.069,-8.36934,,,,"PT",,
"NF54_M",13520,41.0509,-8.34575,,,,"PT",,
"NF54_P",13522,41.0869,-8.34535,,,,"PT",,
"NF54_T",13526,41.0688,-8.32175,,,,"PT",,
"NF54_Z",13532,41.0866,-8.29775,,,,"PT",,
"NF55_U",13552,41.1768,-8.32054,,,,"PT",,
"NF57_C",13585,41.3213,-8.39058,,,,"PT",,
"NF57_E",13587,41.3573,-8.39022,,,,"PT",,
"NF57_I",13591,41.3392,-8.36651,,,,"PT",,
"NF57_M",13595,41.321,-8.34281,,,,"PT",,
"NF57_V",13603,41.2847,-8.29546,,,,"PT",,
"NF57_Z",13607,41.3567,-8.29462,,,,"PT",,
"NF58_C",13610,41.4113,-8.38967,,,,"PT",,
"NF58_F",13613,41.3752,-8.36613,,,,"PT",,
"NF58_J",13617,41.4472,-8.36537,,,,"PT",,
"NF58_T",13626,41.4289,-8.3177,,,,"PT",,
"NF58_V",13628,41.3747,-8.29441,,,,"PT",,
"NF58_Z",13632,41.4468,-8.29357,,,,"PT",,
"NF62_C",13710,40.8703,-8.27652,,,,"PT",,
"NF62_G",13714,40.8522,-8.25301,,,,"PT",,
"NF62_K",13718,40.834,-8.22952,,,,"PT",,
"NF62_N",13721,40.888,-8.22884,,,,"PT",,
"NF62_S",13725,40.8698,-8.20535,,,,"PT",,
"NF62_W",13729,40.8516,-8.18186,,,,"PT",,
"NF64_H",13765,41.0503,-8.25059,,,,"PT",,
"NF64_K",13768,41.0141,-8.22726,,,,"PT",,
"NF64_M",13770,41.0501,-8.2268,,,,"PT",,
"NF64_N",13771,41.0681,-8.22658,,,,"PT",,
"NF64_R",13774,41.0319,-8.20325,,,,"PT",,
"NF64_V",13778,41.0137,-8.17971,,,,"PT",,
"NF64_W",13779,41.0317,-8.17947,,,,"PT",,
"NF64_X",13780,41.0497,-8.17923,,,,"PT",,
"NF64_Z",13782,41.0858,-8.17874,,,,"PT",,
"NF65_A",13783,41.1045,-8.27374,,,,"PT",,
"NF65_G",13789,41.1223,-8.24971,,,,"PT",,
"NF65_I",13791,41.1583,-8.24926,,,,"PT",,
"NF65_M",13795,41.1401,-8.22566,,,,"PT",,
"NF65_P",13797,41.1762,-8.22521,,,,"PT",,
"NF65_R",13799,41.122,-8.20208,,,,"PT",,
"NF65_W",13804,41.1218,-8.17826,,,,"PT",,
"NF66_C",13810,41.2305,-8.27223,,,,"PT",,
"NF66_E",13812,41.2665,-8.2718,,,,"PT",,
"NF66_I",13816,41.2484,-8.24815,,,,"PT",,
"NF66_Q",13823,41.194,-8.20114,,,,"PT",,
"NF66_U",13827,41.266,-8.2002,,,,"PT",,
"NF66_W",13829,41.2118,-8.17706,,,,"PT",,
"NF68_A",13858,41.3746,-8.2705,,,,"PT",,
"NF68_C",13860,41.4106,-8.27007,,,,"PT",,
"NF68_E",13862,41.4466,-8.26964,,,,"PT",,
"NF68_I",13866,41.4284,-8.24593,,,,"PT",,
"NF68_J",13867,41.4464,-8.2457,,,,"PT",,
"NF68_K",13868,41.3742,-8.22269,,,,"PT",,
"NF68_L",13869,41.3922,-8.22246,,,,"PT",,
"NF68_N",13871,41.4283,-8.222,,,,"PT",,
"NF68_U",13877,41.4461,-8.19784,,,,"PT",,
"NF68_V",13878,41.3739,-8.17488,,,,"PT",,
"NF68_X",13880,41.4099,-8.17439,,,,"PT",,
"NF68_Z",13882,41.4459,-8.17391,,,,"PT",,
"NF71_Z",13957,40.8147,-8.06382,,,,"PT",,
"NF74_E",14012,41.0856,-8.15494,,,,"PT",,
"NF74_F",14013,41.0134,-8.13216,,,,"PT",,
"NF74_J",14017,41.0854,-8.13114,,,,"PT",,
"NF74_K",14018,41.0132,-8.10838,,,,"PT",,
"NF74_L",14019,41.0312,-8.10812,,,,"PT",,
"NF74_N",14021,41.0672,-8.1076,,,,"PT",,
"NF74_Q",14023,41.013,-8.08461,,,,"PT",,
"NF74_S",14025,41.049,-8.08408,,,,"PT",,
"NF74_V",14028,41.0128,-8.06083,,,,"PT",,
"NF74_W",14029,41.0308,-8.06056,,,,"PT",,
"NF74_X",14030,41.0488,-8.06029,,,,"PT",,
"NF74_Y",14031,41.0668,-8.06001,,,,"PT",,
"NF74_Z",14032,41.0848,-8.05974,,,,"PT",,
"NF75_B",14034,41.1216,-8.15445,,,,"PT",,
"NF75_F",14038,41.1034,-8.13089,,,,"PT",,
"NF75_G",14039,41.1214,-8.13064,,,,"PT",,
"NF75_H",14040,41.1394,-8.13038,,,,"PT",,
"NF75_L",14044,41.1212,-8.10682,,,,"PT",,
"NF75_M",14045,41.1392,-8.10656,,,,"PT",,
"NF75_N",14046,41.1572,-8.1063,,,,"PT",,
"NF75_S",14050,41.139,-8.08274,,,,"PT",,
"NF75_X",14055,41.1388,-8.05892,,,,"PT",,
"NF75_Z",14057,41.1748,-8.05837,,,,"PT",,
"NF76_F",14063,41.1934,-8.12962,,,,"PT",,
"NF76_G",14064,41.2114,-8.12937,,,,"PT",,
"NF76_L",14069,41.2112,-8.10552,,,,"PT",,
"NF76_N",14071,41.2473,-8.105,,,,"PT",,
"NF76_Q",14073,41.193,-8.08194,,,,"PT",,
"NF76_S",14075,41.2291,-8.0814,,,,"PT",,
"NF76_W",14079,41.2108,-8.05783,,,,"PT",,
"NF77_N",14096,41.3373,-8.10369,,,,"PT",,
"NF77_Q",14098,41.2831,-8.0806,,,,"PT",,
"NF77_S",14100,41.3191,-8.08006,,,,"PT",,
"NF77_T",14101,41.3371,-8.0798,,,,"PT",,
"NF77_U",14102,41.3551,-8.07953,,,,"PT",,
"NF77_W",14104,41.3009,-8.05645,,,,"PT",,
"NF78_U",14127,41.4451,-8.07818,,,,"PT",,
"NF79_C",14135,41.4996,-8.15015,,,,"PT",,
"NF79_E",14137,41.5356,-8.14957,,,,"PT",,
"NF79_F",14138,41.4633,-8.12678,,,,"PT",,
"NF79_I",14141,41.5173,-8.1259,,,,"PT",,
"NF79_L",14144,41.4811,-8.10254,,,,"PT",,
"NF79_T",14151,41.5169,-8.07799,,,,"PT",,
"NF83_E",14237,40.9945,-8.03734,,,,"PT",,
"NF83_N",14246,40.9761,-7.9901,,,,"PT",,
"NF83_U",14252,40.9939,-7.96604,,,,"PT",,
"NF83_V",14253,40.9216,-7.94349,,,,"PT",,
"NF83_W",14254,40.9396,-7.94318,,,,"PT",,
"NF83_Y",14256,40.9756,-7.94257,,,,"PT",,
"NF85_C",14285,41.1386,-8.0351,,,,"PT",,
"NF85_D",14286,41.1566,-8.03482,,,,"PT",,
"NF85_E",14287,41.1746,-8.03454,,,,"PT",,
"NF85_F",14288,41.1024,-8.01186,,,,"PT",,
"NF85_I",14291,41.1564,-8.011,,,,"PT",,
"NF85_J",14292,41.1744,-8.01071,,,,"PT",,
"NF85_K",14293,41.1022,-7.98805,,,,"PT",,
"NF85_M",14295,41.1382,-7.98746,,,,"PT",,
"NF85_P",14297,41.1742,-7.98688,,,,"PT",,
"NF85_Q",14298,41.1019,-7.96424,,,,"PT",,
"NF86_D",14311,41.2466,-8.03342,,,,"PT",,
"NF86_H",14315,41.2284,-8.00985,,,,"PT",,
"NF86_K",14318,41.1922,-7.98658,,,,"PT",,
"NF86_R",14324,41.21,-7.96244,,,,"PT",,
"NF86_V",14328,41.1917,-7.93891,,,,"PT",,
"NF86_X",14330,41.2278,-7.93829,,,,"PT",,
"NF88_A",14358,41.3727,-8.03145,,,,"PT",,
"NF88_E",14362,41.4447,-8.03032,,,,"PT",,
"NF88_I",14366,41.4265,-8.00667,,,,"PT",,
"NF88_K",14368,41.3723,-7.98364,,,,"PT",,
"NF88_M",14370,41.4083,-7.98305,,,,"PT",,
"NF88_N",14371,41.4263,-7.98275,,,,"PT",,
"NF88_R",14374,41.39,-7.95943,,,,"PT",,
"NF88_S",14375,41.408,-7.95913,,,,"PT",,
"NF88_T",14376,41.4261,-7.95883,,,,"PT",,
"NF88_V",14378,41.3718,-7.93583,,,,"PT",,
"NF88_Z",14382,41.4438,-7.93459,,,,"PT",,
"NF90_A",14408,40.6507,-7.92393,,,,"PT",,
"NF90_B",14409,40.6687,-7.9236,,,,"PT",,
"NF90_F",14413,40.6504,-7.90029,,,,"PT",,
"NF90_N",14421,40.7042,-7.87561,,,,"PT",,
"NF90_S",14425,40.6859,-7.8523,,,,"PT",,
"NF94_A",14508,41.0114,-7.91819,,,,"PT",,
"NF94_B",14509,41.0294,-7.91788,,,,"PT",,
"NF94_C",14510,41.0474,-7.91757,,,,"PT",,
"NF94_D",14511,41.0655,-7.91726,,,,"PT",,
"NF94_E",14512,41.0835,-7.91694,,,,"PT",,
"NF94_F",14513,41.0112,-7.89442,,,,"PT",,
"NF94_G",14514,41.0292,-7.8941,,,,"PT",,
"NF94_H",14515,41.0472,-7.89378,,,,"PT",,
"NF94_I",14516,41.0652,-7.89346,,,,"PT",,
"NF94_L",14519,41.029,-7.87032,,,,"PT",,
"NF94_M",14520,41.047,-7.87,,,,"PT",,
"NF95_A",14533,41.1015,-7.91663,,,,"PT",,
"NF96_J",14567,41.2633,-7.88995,,,,"PT",,
"NF96_K",14568,41.191,-7.86739,,,,"PT",,
"NF96_M",14570,41.227,-7.86674,,,,"PT",,
"NF96_P",14572,41.263,-7.86609,,,,"PT",,
"NF96_R",14574,41.2088,-7.84322,,,,"PT",,
"NF96_U",14577,41.2628,-7.84222,,,,"PT",,
"NF96_Y",14581,41.2445,-7.8187,,,,"PT",,
"NF97_C",14585,41.3175,-7.91287,,,,"PT",,
"NF97_D",14586,41.3356,-7.91256,,,,"PT",,
"NF97_G",14589,41.2993,-7.88931,,,,"PT",,
"NF97_J",14592,41.3533,-7.88834,,,,"PT",,
